City_ID,City,Lat,Lng,Max Temp,Humidity,Cloudiness,Wind Speed,Country,Date
0,puerto natales,-51.7236,-72.4875,2.180000000000007,71,7,2.27,CL,1700356708
1,poykovskiy,61.2333,73.3333,-16.659999999999968,77,0,3.0,RU,1700356708
2,albany,42.6001,-73.9662,1.8900000000000432,65,0,0.89,US,1700356552
3,vennesla,58.2694,7.9741,1.82000000000005,93,100,7.2,NO,1700356709
4,raja,8.4596,25.678,24.420000000000016,40,100,1.44,SS,1700356709
5,jamestown,42.097,-79.2353,6.770000000000039,80,0,5.14,US,1700356472
6,codrington,-38.2667,141.9667,18.340000000000032,60,100,4.86,AU,1700356709
7,mansalay,12.5167,121.4,25.010000000000048,87,100,8.13,PH,1700356709
8,diego de almagro,-26.3667,-70.05,18.620000000000005,22,0,0.43,CL,1700356709
9,waitangi,-43.9535,-176.5597,13.230000000000018,85,100,4.92,NZ,1700356710
10,papatowai,-46.5619,169.4708,14.140000000000043,54,56,3.89,NZ,1700356710
11,edinburgh of the seven seas,-37.0676,-12.3116,13.170000000000016,85,88,19.1,SH,1700356710
12,whitehorse,60.7161,-135.0538,-10.569999999999993,72,100,4.63,CA,1700356491
13,pangkalpinang,-2.1333,106.1333,28.220000000000027,76,93,1.87,ID,1700356710
14,grytviken,-54.2811,-36.5092,1.7800000000000296,92,100,0.6,GS,1700356710
15,blackmans bay,-43.0167,147.3167,16.07000000000005,71,100,1.35,AU,1700356710
16,bethel,41.3712,-73.414,5.270000000000039,60,0,2.57,US,1700356710
17,olonkinbyen,70.9221,-8.7187,-0.6899999999999977,96,100,4.38,SJ,1700356710
18,iqaluit,63.7506,-68.5145,-2.1499999999999773,74,100,5.14,CA,1700356711
19,port saint john's,-31.6229,29.5448,20.340000000000032,92,94,1.23,ZA,1700356711
20,axim,4.8699,-2.2405,25.879999999999995,86,44,2.45,GH,1700356711
21,waingapu,-9.6567,120.2641,30.110000000000014,58,8,3.39,ID,1700356711
22,kodiak,57.79,-152.4072,-2.269999999999982,54,0,4.12,US,1700356711
23,gadzhiyevo,69.2551,33.3362,-9.649999999999977,91,56,3.8,RU,1700356711
24,ola,59.5833,151.2833,-5.060000000000002,74,100,4.97,RU,1700356711
25,altoona,40.5187,-78.3947,4.57000000000005,65,0,0.89,US,1700356504
26,klyuchi,52.2667,79.1667,0.27000000000003865,72,100,14.1,RU,1700356711
27,yamada,39.4667,141.95,12.020000000000039,63,36,4.71,JP,1700356711
28,adamstown,-25.066,-130.1015,22.03000000000003,88,100,10.62,PN,1700356712
29,afaahiti,-17.75,-149.2833,27.930000000000007,81,64,10.02,PF,1700356712
30,isangel,-19.55,169.2667,27.060000000000002,83,75,1.03,VU,1700356712
31,lompoc,34.6391,-120.4579,17.230000000000018,87,100,0.0,US,1700356712
32,guerrero negro,27.9769,-114.0611,19.810000000000002,84,6,8.08,MX,1700356712
33,minas de marcona,-15.2119,-75.1103,15.240000000000009,79,27,4.6,PE,1700356712
34,bilibino,68.0546,166.4372,-25.73999999999998,100,99,1.53,RU,1700356712
35,port-aux-francais,-49.35,70.2167,5.140000000000043,90,89,12.34,TF,1700356712
36,badger,64.8,-147.5333,-13.859999999999957,85,100,1.54,US,1700356526
37,puerto maldonado,-12.6,-69.1833,32.610000000000014,40,100,1.94,PE,1700356712
38,koster,-25.863,26.8976,16.5,65,35,0.42,ZA,1700356713
39,rongelap,11.1635,166.8941,27.970000000000027,78,15,6.99,MH,1700356713
40,haiku-pauwela,20.9219,-156.3051,28.010000000000048,59,40,3.09,US,1700356713
41,prince rupert,54.3161,-130.3201,8.050000000000011,85,100,8.23,CA,1700356713
42,namibe,-15.1961,12.1522,26.5,69,100,2.74,AO,1700356713
43,ilulissat,69.2167,-51.1,3.0100000000000477,65,100,7.2,GL,1700356713
44,kapa'a,22.0752,-159.319,27.99000000000001,72,0,5.66,US,1700356713
45,harnosand,62.6323,17.9379,-14.0,87,42,2.5,SE,1700356713
46,varzea da palma,-17.5981,-44.7308,28.939999999999998,39,48,1.01,BR,1700356713
47,qaqortoq,60.7167,-46.0333,-0.060000000000002274,96,100,6.66,GL,1700356714
48,cestos city,5.46,-9.5828,25.760000000000048,87,100,2.28,LR,1700356714
49,stanley,54.868,-1.6985,9.840000000000032,95,40,4.63,GB,1700356714
50,port lincoln,-34.7333,135.8667,17.79000000000002,64,64,5.84,AU,1700356714
51,enewetak,11.3474,162.3373,28.210000000000036,78,8,7.65,MH,1700356714
52,port hedland,-20.3167,118.5667,39.03000000000003,14,5,6.17,AU,1700356503
53,barcelos,41.5388,-8.6151,14.080000000000041,92,6,1.53,PT,1700356714
54,georgetown,5.4112,100.3354,27.960000000000036,78,20,3.09,MY,1700356713
55,lazaro cardenas,17.9583,-102.2,27.379999999999995,82,10,0.86,MX,1700356714
56,tazacorte,28.629,-17.9293,23.970000000000027,30,0,4.47,ES,1700356714
57,iskateley,67.6803,53.1512,-14.989999999999952,97,73,3.58,RU,1700356715
58,auki,-8.7676,160.7034,29.30000000000001,72,49,1.99,SB,1700356715
59,yellowknife,62.456,-114.3525,-4.769999999999982,98,75,6.71,CA,1700356715
60,margaret river,-33.95,115.0667,20.150000000000034,58,4,4.72,AU,1700356715
61,wailua homesteads,22.0669,-159.378,27.24000000000001,72,0,5.66,US,1700356715
62,utrik,11.2278,169.8474,27.910000000000025,77,13,7.08,MH,1700356715
63,college,64.8569,-147.8028,-13.819999999999993,83,100,1.54,US,1700356715
64,maceio,-9.6658,-35.7353,24.689999999999998,94,0,2.06,BR,1700356714
65,thompson,55.7435,-97.8558,-5.909999999999968,73,75,1.03,CA,1700356715
66,menomonie,44.8755,-91.9193,6.020000000000039,56,0,0.0,US,1700356715
67,petauke,-14.2426,31.3253,22.900000000000034,53,6,1.67,ZM,1700356716
68,ushuaia,-54.8,-68.3,1.8100000000000023,60,75,6.17,AR,1700356624
69,port elizabeth,-33.918,25.5701,16.29000000000002,91,0,1.54,ZA,1700356649
70,besisahar,28.2313,84.3761,15.950000000000045,52,1,2.43,NP,1700356716
71,maitum,6.0392,124.4986,29.29000000000002,71,100,0.91,PH,1700356716
72,aleksandrovsk-sakhalinskiy,50.8975,142.1561,0.8700000000000045,98,100,8.47,RU,1700356716
73,puerto ayora,-0.7393,-90.3518,23.08000000000004,94,81,1.34,EC,1700356716
74,sitka,57.0531,-135.33,2.9399999999999977,70,75,3.09,US,1700356716
75,valeni,46.5928,28.0625,1.3100000000000023,74,100,10.36,RO,1700356716
76,bengkulu,-3.8004,102.2655,25.390000000000043,91,100,1.38,ID,1700356716
77,ponta delgada,37.7333,-25.6667,19.55000000000001,72,40,6.69,PT,1700356717
78,tolanaro,-25.0319,46.9987,21.910000000000025,92,3,5.07,MG,1700356717
79,beau vallon,-20.4189,57.6953,21.230000000000018,83,20,1.54,MU,1700356717
80,lata,40.1629,-8.3327,15.510000000000048,92,3,1.03,PT,1700356717
81,selfoss,63.9331,-20.9971,-1.6399999999999864,73,47,3.48,IS,1700356717
82,baley,51.6,116.6333,-9.949999999999989,94,73,1.64,RU,1700356717
83,san antonio de pale,-1.4014,5.6325,26.83000000000004,81,100,5.27,GQ,1700356717
84,jinghong,21.991,100.7341,16.900000000000034,93,99,0.76,CN,1700356717
85,west island,-12.1568,96.8225,27.99000000000001,65,40,3.09,CC,1700356717
86,hamilton,39.1834,-84.5333,7.100000000000023,70,0,2.57,US,1700356717
87,labytnangi,66.6572,66.4183,-24.99999999999997,95,63,1.86,RU,1700356718
88,kone,-21.0595,164.8658,30.840000000000032,48,11,3.17,NC,1700356718
89,ribeira grande,38.5167,-28.7,16.54000000000002,82,100,6.26,PT,1700356718
90,clearlake,38.9582,-122.6264,14.210000000000036,88,100,4.61,US,1700356718
91,ankara,39.9199,32.8543,3.5100000000000477,87,100,2.68,TR,1700356663
92,preobrazheniye,42.9019,133.9064,3.3700000000000045,44,100,4.69,RU,1700356718
93,isafjordur,66.0755,-23.124,3.2200000000000273,92,100,1.44,IS,1700356718
94,caleta de carquin,-11.0925,-77.6267,19.620000000000005,83,100,4.82,PE,1700356718
95,longyearbyen,78.2186,15.6401,-12.089999999999975,67,75,4.12,SJ,1700356718
96,sao vicente,-23.9631,-46.3919,29.100000000000023,26,100,0.89,BR,1700356571
97,hermanus,-34.4187,19.2345,16.700000000000045,83,100,1.31,ZA,1700356718
98,merei,45.1333,26.6833,4.110000000000014,64,100,6.73,RO,1700356719
99,gorontalo,0.5412,123.0595,31.379999999999995,60,100,1.46,ID,1700356719
100,singaraja,-8.112,115.0882,29.720000000000027,58,3,0.45,ID,1700356719
101,aktau,43.65,51.2,9.32000000000005,55,100,7.83,KZ,1700356719
102,luang namtha,20.9497,101.4011,17.010000000000048,94,75,0.0,LA,1700356719
103,akureyri,65.6835,-18.0878,-6.039999999999964,93,40,1.03,IS,1700356719
104,edd,13.9297,41.6925,29.640000000000043,55,84,7.9,ER,1700356719
105,puerto carreno,6.189,-67.4859,24.760000000000048,94,100,6.51,CO,1700356719
106,cabo san lucas,22.8909,-109.9124,29.230000000000018,69,0,4.12,MX,1700356719
107,tiksi,71.6872,128.8694,-30.20999999999998,100,59,3.08,RU,1700356719
108,aasiaat,68.7098,-52.8699,2.080000000000041,68,100,13.22,GL,1700356720
109,kerewan,13.4898,-16.0888,24.07000000000005,65,39,3.17,GM,1700356720
110,alice springs,-23.7,133.8833,23.75,69,100,2.57,AU,1700356720
111,makoua,0.0069,15.6333,22.100000000000023,98,96,0.87,CG,1700356720
112,tura,25.5198,90.2201,18.480000000000018,94,3,1.44,IN,1700356720
113,nguruka,-5.1092,31.0419,21.08000000000004,74,50,0.38,TZ,1700356720
114,luderitz,-26.6481,15.1594,19.02000000000004,54,0,1.51,NA,1700356720
115,funafuti,-8.5243,179.1942,33.0,84,40,5.14,TV,1700356720
116,suva,-18.1416,178.4415,28.710000000000036,70,75,4.12,FJ,1700356720
117,nemuro,43.3236,145.575,7.28000000000003,77,36,10.3,JP,1700356720
118,fort bragg,35.139,-79.006,17.910000000000025,53,0,3.09,US,1700356721
119,amga,60.8953,131.9608,-19.599999999999966,99,100,1.17,RU,1700356721
120,pechora,65.1472,57.2244,-11.189999999999998,96,99,2.68,RU,1700356721
121,pathein,16.7833,94.7333,23.80000000000001,90,34,3.46,MM,1700356721
122,port-vila,-17.7338,168.3219,28.78000000000003,79,75,3.6,VU,1700356721
123,devils lake,48.1128,-98.8651,3.3000000000000114,82,0,0.89,US,1700356721
124,kindu,-2.95,25.95,21.310000000000002,99,100,0.12,CD,1700356721
125,jangaon,17.7167,79.1833,19.83000000000004,92,100,1.44,IN,1700356721
126,kabinda,-6.1333,24.4833,19.55000000000001,97,100,1.21,CD,1700356721
127,kingston,17.997,-76.7936,24.560000000000002,96,100,1.38,JM,1700356686
128,yung shue wan,22.2333,114.1167,20.680000000000007,54,17,0.45,HK,1700356722
129,haldensleben i,52.2891,11.4098,6.960000000000036,91,100,6.55,DE,1700356722
130,tralee,52.2704,-9.7026,11.390000000000043,88,100,8.56,IE,1700356722
131,fale old settlement,-9.3852,-171.2468,29.420000000000016,76,48,7.35,TK,1700356722
132,kourou,5.1552,-52.6478,28.03000000000003,90,42,3.25,GF,1700356722
133,dryden,49.7833,-92.7503,-1.839999999999975,93,20,1.03,CA,1700356722
134,invercargill,-46.4,168.35,14.450000000000045,64,62,4.92,NZ,1700356722
135,san luis de la loma,17.2706,-100.8939,26.840000000000032,85,14,0.28,MX,1700356722
136,shache,38.4167,77.2406,7.060000000000002,21,100,1.62,CN,1700356722
137,okhotsk,59.3833,143.3,-10.349999999999966,78,91,8.06,RU,1700356722
138,dawson creek,55.7666,-120.2362,6.330000000000041,93,0,1.54,CA,1700356431
139,kirov,58.5966,49.6601,-5.409999999999968,66,96,3.58,RU,1700356723
140,alamo,20.9167,-97.6833,24.80000000000001,94,28,1.55,MX,1700356490
141,anadyr,64.75,177.4833,-6.71999999999997,73,40,3.0,RU,1700356723
142,patterson,37.4716,-121.1297,17.220000000000027,80,98,3.29,US,1700356723
143,san juan de miraflores,-12.1629,-76.9635,19.54000000000002,81,96,2.75,PE,1700356723
144,punta arenas,-53.15,-70.9167,4.060000000000002,48,0,5.66,CL,1700356723
145,hadibu,12.65,54.0333,25.810000000000002,78,21,3.42,YE,1700356723
146,parras de la fuente,25.4167,-102.1833,19.82000000000005,51,28,1.08,MX,1700356723
147,khovd,48.0056,91.6419,-2.669999999999959,72,100,1.67,MN,1700356723
148,crane,31.3974,-102.3501,17.25,64,99,6.63,US,1700356723
149,dudinka,69.4058,86.1778,-25.049999999999983,100,86,2.77,RU,1700356724
150,petropavlovsk-kamchatsky,53.0452,158.6483,1.330000000000041,98,75,5.81,RU,1700356724
151,nuku'alofa,-21.1333,-175.2,26.189999999999998,73,20,4.63,TO,1700356724
152,talnakh,69.4865,88.3972,-24.869999999999976,97,63,0.82,RU,1700356724
153,olinda,-8.0089,-34.8553,26.850000000000023,78,40,4.12,BR,1700356564
154,keene,42.9337,-72.2781,1.7600000000000477,82,0,1.34,US,1700356724
155,bamboo flat,11.7,92.7167,28.05000000000001,78,40,4.12,IN,1700356724
156,onverwacht,5.5833,-55.1833,27.140000000000043,89,0,1.54,SR,1700356724
157,deneysville,-26.8908,28.0971,17.180000000000007,66,31,0.91,ZA,1700356724
158,gaspe,48.8334,-64.4819,1.1200000000000045,93,100,1.54,CA,1700356508
159,port mathurin,-19.6833,63.4167,25.0,81,100,5.36,MU,1700356724
160,hawaiian paradise park,19.5933,-154.9731,26.730000000000018,68,40,7.72,US,1700356724
161,jaciara,-15.9653,-54.9683,29.980000000000018,44,100,2.06,BR,1700356725
162,karagandy,49.8019,73.1021,-2.0299999999999727,84,99,7.02,KZ,1700356725
163,dhalie,13.6957,44.7314,18.010000000000048,86,47,1.79,YE,1700356725
164,ibipeba,-11.6408,-42.0111,25.83000000000004,64,77,0.68,BR,1700356725
165,derzhavinsk,51.1,66.3167,-5.909999999999968,76,10,3.82,KZ,1700356725
166,siwa oasis,29.2041,25.5195,19.060000000000002,69,0,5.91,EG,1700356577
167,fort mcmurray,56.7268,-111.381,0.7700000000000387,93,40,2.57,CA,1700356618
168,marka,1.7159,44.7717,26.670000000000016,83,100,3.38,SO,1700356725
169,swift current,50.2834,-107.8014,2.4500000000000455,75,0,4.12,CA,1700356725
170,kavaratti,10.5669,72.642,28.510000000000048,70,84,2.1,IN,1700356725
171,sydney,-33.8679,151.2073,29.620000000000005,57,20,8.75,AU,1700356630
172,vorgashor,67.5833,63.95,-25.799999999999983,100,86,0.8,RU,1700356725
173,voznesenskoye,54.89,42.7569,-7.089999999999975,79,4,0.89,RU,1700356726
174,samtse,26.899,89.0995,17.720000000000027,63,0,2.23,BT,1700356726
175,honcho,35.6931,139.9833,17.33000000000004,41,20,2.57,JP,1700356726
176,lebu,-37.6167,-73.65,10.700000000000045,87,32,1.61,CL,1700356726
177,khawr fakkan,25.3313,56.342,22.03000000000003,67,0,0.47,AE,1700356726
178,la romana,18.4273,-68.9728,24.200000000000045,94,75,3.6,DO,1700356697
179,barra de santo antonio,-9.4047,-35.5072,24.600000000000023,83,0,3.9,BR,1700356726
180,nongstoin,25.5167,91.2667,13.410000000000025,91,0,1.52,IN,1700356726
181,flying fish cove,-10.4217,105.6791,26.82000000000005,73,100,3.09,CX,1700356726
182,banda aceh,5.5577,95.3222,27.30000000000001,81,62,3.64,ID,1700356726
183,carnarvon,-24.8667,113.6333,26.33000000000004,60,1,4.66,AU,1700356726
184,doka,13.5167,35.7667,26.55000000000001,45,100,3.2,SD,1700356680
185,conceicao da barra,-18.5933,-39.7322,25.600000000000023,76,10,5.93,BR,1700356727
186,beloyarskiy,63.7119,66.6722,-24.919999999999987,100,90,0.97,RU,1700356727
187,mount isa,-20.7333,139.5,26.870000000000005,47,75,9.26,AU,1700356727
188,keflavik,64.0049,-22.5624,1.240000000000009,86,0,3.09,IS,1700356727
189,new norfolk,-42.7826,147.0587,16.720000000000027,50,100,0.98,AU,1700356727
190,bardsir,29.9227,56.5743,8.930000000000007,49,0,1.82,IR,1700356727
191,soe,-9.8607,124.284,27.82000000000005,44,95,2.12,ID,1700356727
192,quartu sant'elena,39.2419,9.1839,13.910000000000025,76,0,1.54,IT,1700356727
193,chibougamau,49.9168,-74.3659,-5.2099999999999795,93,100,2.57,CA,1700356727
194,gobabis,-22.45,18.9667,23.27000000000004,47,100,3.86,NA,1700356727
195,kyzyl-mazhalyk,51.1333,90.6,-8.939999999999998,95,83,0.45,RU,1700356727
196,phalaborwa,-23.943,31.1411,24.600000000000023,50,95,1.38,ZA,1700356727
197,hailey,43.5196,-114.3153,6.840000000000032,67,100,1.34,US,1700356617
198,pointe-noire,-4.7761,11.8635,26.04000000000002,94,75,2.57,CG,1700356728
199,ust-nera,64.5667,143.2,-24.769999999999982,98,96,0.59,RU,1700356728
200,hafnarfjordur,64.0671,-21.9377,1.2100000000000364,86,0,2.06,IS,1700356728
201,shingu,33.7333,135.9833,13.890000000000043,54,2,3.16,JP,1700356728
202,jackson,42.4165,-122.8345,11.670000000000016,94,100,4.12,US,1700356683
203,ciudad lazaro cardenas,17.9583,-102.2,27.379999999999995,82,10,0.86,MX,1700356728
204,eket,4.6412,7.9209,25.890000000000043,88,100,1.86,NG,1700356728
205,perambalur,11.2333,78.8833,23.49000000000001,88,100,3.8,IN,1700356728
206,st. john's,47.5649,-52.7093,10.439999999999998,93,100,9.26,CA,1700356688
207,las vegas,36.175,-115.1372,19.689999999999998,41,0,7.6,US,1700356469
208,coruripe,-10.1256,-36.1756,25.730000000000018,77,0,5.35,BR,1700356728
209,saipan,15.1355,145.701,30.390000000000043,84,75,10.8,MP,1700356693
210,san patricio,28.017,-97.5169,20.920000000000016,72,100,2.85,US,1700356728
211,luanda,-8.8368,13.2343,24.910000000000025,90,83,1.53,AO,1700356729
212,atafu village,-8.5421,-172.5159,29.650000000000034,75,57,6.15,TK,1700356729
213,berezovyy,51.6667,135.7,-3.5499999999999545,88,100,0.46,RU,1700356729
214,lakeview,42.432,-75.8655,0.7600000000000477,87,2,1.16,US,1700356729
215,mejit,10.2753,170.8646,27.900000000000034,77,34,6.28,MH,1700356729
216,midvagur,62.0511,-7.1939,8.460000000000036,87,100,7.2,FO,1700356729
217,el burgo de osma,41.5862,-3.0652,9.640000000000043,72,4,0.36,ES,1700356729
218,avarua,-21.2078,-159.775,24.03000000000003,73,75,5.66,CK,1700356729
219,susuman,62.7833,148.1667,-26.93999999999997,99,87,0.65,RU,1700356729
220,al burayqah,30.4062,19.5739,21.04000000000002,70,87,8.44,LY,1700356729
221,bonthe,7.5264,-12.505,25.57000000000005,82,100,1.34,SL,1700356729
222,kilindoni,-7.9139,39.6668,26.610000000000014,85,50,5.26,TZ,1700356730
223,east london,-33.0153,27.9116,18.870000000000005,87,83,1.79,ZA,1700356730
224,high river,50.5834,-113.8687,6.840000000000032,59,52,3.97,CA,1700356623
225,zindah jan,34.3426,61.7468,12.32000000000005,74,0,2.39,AF,1700356730
226,sortavala,61.7053,30.6918,-2.769999999999982,89,79,3.58,RU,1700356730
227,svetlyy,54.675,20.1347,0.20000000000004547,80,14,3.76,RU,1700356730
228,kailua-kona,19.6406,-155.9956,27.980000000000018,70,20,5.66,US,1700356439
229,saynshand,44.8824,110.1163,-4.9599999999999795,73,3,0.57,MN,1700356730
230,huarmey,-10.0681,-78.1522,19.78000000000003,83,100,4.55,PE,1700356730
231,mount gambier,-37.8333,140.7667,19.49000000000001,52,100,3.21,AU,1700356730
232,hurricane,37.1753,-113.2899,15.57000000000005,67,18,1.77,US,1700356730
233,sao joao da barra,-21.6403,-41.0511,24.49000000000001,87,2,8.45,BR,1700356731
234,ben gardane,33.1378,11.2197,19.100000000000023,62,49,4.67,TN,1700356731
235,talakan,50.3167,130.3667,-6.75,87,100,3.41,RU,1700356731
236,shunyi,40.125,116.6453,7.970000000000027,36,0,3.0,CN,1700356731
237,timimoun,29.2639,0.231,18.629999999999995,31,0,4.9,DZ,1700356731
238,imbituba,-28.24,-48.6703,24.360000000000014,85,100,1.85,BR,1700356731
239,pacific grove,36.6177,-121.9166,16.480000000000018,88,100,3.09,US,1700356609
240,weno,7.4515,151.8468,28.620000000000005,74,24,2.73,FM,1700356731
241,huadian,42.9633,126.7478,-2.4499999999999886,86,82,6.81,CN,1700356731
242,keetmanshoop,-26.5833,18.1333,23.950000000000045,21,64,3.26,NA,1700356731
243,chonchi,-42.6128,-73.8092,10.07000000000005,95,64,1.63,CL,1700356731
244,nishifukuma,33.7667,130.4667,14.050000000000011,59,12,8.21,JP,1700356732
245,muynoq,43.7683,59.0214,6.5,70,81,1.99,UZ,1700356732
246,bredasdorp,-34.5322,20.0403,15.860000000000014,90,100,1.39,ZA,1700356732
247,saudarkrokur,65.7461,-19.6394,-0.16999999999995907,83,100,3.71,IS,1700356732
248,cam ranh,11.9214,109.1591,26.980000000000018,61,40,4.63,VN,1700356732
249,den helder,52.9599,4.7593,13.32000000000005,90,100,10.73,NL,1700356732
250,fuerte olimpo,-21.0415,-57.8738,30.379999999999995,55,100,1.26,PY,1700356732
251,richards bay,-28.783,32.0377,22.060000000000002,91,100,0.92,ZA,1700356732
252,tosontsengel,48.7567,98.2839,-12.019999999999982,80,23,0.34,MN,1700356732
253,arraias,-12.9288,-46.9437,21.890000000000043,81,57,1.29,BR,1700356732
254,newman,37.3138,-121.0208,17.24000000000001,80,74,1.79,US,1700356732
255,spas-demensk,54.4122,34.0226,-6.779999999999973,79,100,0.37,RU,1700356733
256,mahenge,-8.6833,36.7167,18.310000000000002,93,62,0.5,TZ,1700356733
257,baldwin harbor,40.6395,-73.6085,7.990000000000009,47,20,5.66,US,1700356733
258,nicosia,35.1667,33.3667,18.54000000000002,67,40,6.69,CY,1700356733
259,champerico,14.3,-91.9167,27.160000000000025,80,12,2.04,GT,1700356733
260,brokopondo,4.75,-55.1667,26.170000000000016,80,0,3.22,SR,1700356733
261,fecamp,49.7579,0.3746,13.840000000000032,91,36,10.48,FR,1700356733
262,borogontsy,62.6683,131.1683,-25.309999999999974,100,99,2.05,RU,1700356733
263,xinzhi,36.4989,111.7047,9.960000000000036,24,0,0.99,CN,1700356733
264,moussoro,13.6408,16.4901,24.510000000000048,18,100,6.46,TD,1700356733
265,verkhnevilyuysk,63.4453,120.3167,-18.069999999999965,98,98,1.03,RU,1700356733
266,pandan,14.0453,124.1694,26.640000000000043,86,100,9.02,PH,1700356734
267,kavieng,-2.5744,150.7967,29.370000000000005,72,13,5.55,PG,1700356734
268,truckee,39.328,-120.1833,7.340000000000032,91,100,5.36,US,1700356675
269,dire dawa,9.5931,41.8661,20.629999999999995,83,56,1.82,ET,1700356525
270,mokshan,53.4365,44.6132,-6.319999999999993,64,0,1.66,RU,1700356734
271,butte,39.6499,-121.5677,15.010000000000048,88,75,9.77,US,1700356734
272,tazovsky,67.4667,78.7,-23.649999999999977,99,92,2.75,RU,1700356734
273,marsabit,2.3284,37.9899,17.850000000000023,91,100,6.26,KE,1700356734
274,igarka,67.4667,86.5833,-18.169999999999987,98,100,1.99,RU,1700356735
275,ha'il,27.5219,41.6907,18.010000000000048,100,0,4.12,SA,1700356735
276,myory,55.6217,27.6299,-3.42999999999995,96,100,1.92,BY,1700356735
277,la passe,45.5549,-0.8967,15.550000000000011,93,95,4.28,FR,1700356735
278,lihue,21.9789,-159.3672,27.58000000000004,65,0,5.66,US,1700356735
279,ailuk,10.2197,169.9797,27.930000000000007,76,17,6.59,MH,1700356735
280,mount pearl,47.5166,-52.7813,9.980000000000018,93,100,9.26,CA,1700356735
281,laojunmiao,39.8333,97.7333,1.0500000000000114,10,0,1.3,CN,1700356735
282,suluktu,39.9337,69.57,5.710000000000036,64,99,0.34,KG,1700356735
283,geraldton,-28.7667,114.6,35.23000000000002,16,0,6.17,AU,1700356736
284,fisterra,42.9049,-9.2629,17.08000000000004,91,98,4.07,ES,1700356736
285,desaguadero,-16.5656,-69.0417,14.470000000000027,42,100,3.37,PE,1700356736
286,betio village,1.358,172.9211,32.02000000000004,71,12,2.31,KI,1700356736
287,narvik,68.4384,17.4272,-1.2199999999999704,91,65,1.46,NO,1700356736
288,kapuskasing,49.4169,-82.4331,-1.9499999999999886,86,100,9.77,CA,1700356736
289,nar'yan-mar,67.6713,53.087,-14.939999999999998,97,75,3.58,RU,1700356736
290,puerto lempira,15.2667,-83.7667,25.30000000000001,78,99,6.85,HN,1700356736
291,quelimane,-17.8786,36.8883,23.640000000000043,90,92,1.9,MZ,1700356736
292,portland,45.5234,-122.6762,10.03000000000003,80,100,5.66,US,1700356323
293,villa regina,-39.1,-67.0667,17.210000000000036,15,0,5.81,AR,1700356737
294,xilin hot,43.9667,116.0333,-5.699999999999989,79,6,1.65,CN,1700356737
295,nyala,12.05,24.8833,23.29000000000002,18,100,6.45,SD,1700356737
296,juankoski,63.0667,28.35,-3.75,96,85,2.02,FI,1700356737
297,warmbad,-28.45,18.7333,21.340000000000032,25,1,3.08,NA,1700356737
298,luganville,-15.5333,167.1667,28.55000000000001,73,76,4.87,VU,1700356737
299,phan rang-thap cham,11.5667,108.9833,25.439999999999998,69,42,4.81,VN,1700356737
300,sunne,59.8376,13.143,-6.819999999999993,60,93,0.57,SE,1700356737
301,zhangye,38.9342,100.4517,3.640000000000043,17,0,1.14,CN,1700356737
302,tonneins,44.3921,0.3124,10.79000000000002,72,6,0.89,FR,1700356737
303,happy valley-goose bay,53.3168,-60.3315,-1.829999999999984,74,75,2.57,CA,1700356443
304,madinat ash shamal,26.1293,51.2009,23.78000000000003,59,37,2.09,QA,1700356738
305,westport,41.1415,-73.3579,6.990000000000009,57,0,0.89,US,1700356738
306,udachny,66.4167,112.4,-24.019999999999982,100,16,2.14,RU,1700356738
307,shamgarh,24.1833,75.6333,17.29000000000002,57,0,3.1,IN,1700356738
308,holualoa,19.6228,-155.9522,25.910000000000025,71,20,5.66,US,1700356738
309,talcahuano,-36.7167,-73.1167,11.82000000000005,82,0,0.0,CL,1700356738
310,sergeyevka,53.88,67.4158,-10.629999999999995,93,12,3.3,KZ,1700356738
311,undurkhaan,47.3194,110.6556,-10.859999999999957,89,5,1.93,MN,1700356738
312,ankazoabo,-22.2833,44.5167,22.510000000000048,79,5,1.68,MG,1700356738
313,tangalle,6.024,80.7911,24.78000000000003,87,99,1.68,LK,1700356738
314,nova borova,50.693,28.6345,-2.67999999999995,83,100,2.81,UA,1700356738
315,outjo,-20.1167,16.15,23.310000000000002,54,100,4.31,NA,1700356739
316,port douglas,-16.4833,145.4667,27.58000000000004,58,11,3.22,AU,1700356739
317,saldanha,-33.0117,17.9442,16.230000000000018,88,100,1.64,ZA,1700356739
318,nuuk,64.1835,-51.7216,0.34000000000003183,93,100,10.8,GL,1700356739
319,colonia,50.9333,6.95,13.82000000000005,90,75,4.12,DE,1700356739
320,andrews,32.3187,-102.5457,12.590000000000032,100,100,5.66,US,1700356739
321,ocean city,39.2776,-74.5746,7.770000000000039,57,0,4.02,US,1700356739
322,thanh hoa,19.8,105.7667,18.730000000000018,62,15,2.54,VN,1700356657
323,thunder bay,48.4001,-89.3168,2.990000000000009,60,0,4.12,CA,1700356643
324,hotan,37.0997,79.9269,3.0300000000000296,23,100,0.7,CN,1700356739
325,saint-pierre,-21.3393,55.4781,19.82000000000005,64,40,3.6,RE,1700356705
326,agustin codazzi,10.0341,-73.2361,23.510000000000048,97,100,1.29,CO,1700356739
327,laghouat,33.8,2.8651,12.740000000000009,52,0,0.92,DZ,1700356740
328,ath thawrah,35.8469,38.5443,17.680000000000007,72,100,4.07,SY,1700356740
329,tocopilla,-22.092,-70.1979,18.840000000000032,70,38,1.93,CL,1700356740
330,zaozersk,69.4005,32.4476,-11.569999999999993,96,65,3.29,RU,1700356740
331,ciudad sabinas hidalgo,26.5,-100.1667,20.52000000000004,77,6,2.12,MX,1700356740
332,hithadhoo,-0.6,73.0833,27.77000000000004,79,14,5.73,MV,1700356740
333,leava,-14.3,-178.1667,28.52000000000004,82,23,9.11,WF,1700356740
334,sandpoint,48.2766,-116.5533,2.6000000000000227,86,0,3.13,US,1700356740
335,san bernardo del viento,9.3533,-75.9524,26.74000000000001,85,100,6.22,CO,1700356535
336,puerto aysen,-45.4,-72.7,4.8799999999999955,100,100,1.79,CL,1700356740
337,amuntai,-2.4177,115.2494,27.470000000000027,87,26,0.26,ID,1700356741
338,halifax,44.6453,-63.5724,13.939999999999998,97,100,0.89,CA,1700356555
339,turis,39.3833,-0.7,13.870000000000005,90,8,2.06,ES,1700356741
340,nadym,65.5333,72.5167,-24.879999999999967,99,21,4.74,RU,1700356741
341,ulanhot,46.0833,122.0833,-1.8799999999999955,64,0,4.29,CN,1700356741
342,guanambi,-14.2233,-42.7814,29.33000000000004,42,99,1.14,BR,1700356741
343,pernio,60.2,23.1333,2.160000000000025,94,74,0.87,FI,1700356636
344,lae,-6.7221,146.9847,29.05000000000001,67,55,3.04,PG,1700356741
345,darovskoy,58.77,47.9564,-7.139999999999986,86,89,3.7,RU,1700356741
346,indre arna,60.4247,5.4764,6.480000000000018,62,100,3.2,NO,1700356741
347,pasuquin,18.3328,120.6177,26.970000000000027,61,40,2.57,PH,1700356741
348,birobidzhan,48.8,132.95,-6.769999999999982,91,100,1.67,RU,1700356741
349,almeirim,-1.5233,-52.5817,30.260000000000048,51,54,2.6,BR,1700356742
350,pangoa,-12.1167,-73.0,24.350000000000023,79,100,1.7,PE,1700356742
351,nicoya,10.1483,-85.452,24.24000000000001,93,100,0.59,CR,1700356535
352,burang,30.25,81.1667,-2.9399999999999977,42,0,1.49,CN,1700356742
353,bucerias,20.75,-105.3333,28.99000000000001,79,75,3.09,MX,1700356742
354,clarkston heights-vineland,46.3874,-117.083,10.670000000000016,81,100,0.0,US,1700356742
355,bosansko grahovo,44.1794,16.3639,-0.2899999999999636,83,10,2.2,BA,1700356742
356,coronel suarez,-37.4547,-61.9334,12.900000000000034,37,2,3.21,AR,1700356742
357,santa quiteria,-4.3319,-40.1567,27.80000000000001,63,25,2.88,BR,1700356743
358,visp,46.2937,7.8815,10.890000000000043,99,100,2.33,CH,1700356743
359,nagqu,31.5,92.0,-7.849999999999966,60,0,1.4,CN,1700356743
360,lengshuitan,26.4111,111.5956,15.450000000000045,57,49,0.49,CN,1700356743
361,muisne,0.6,-80.0333,24.75,84,98,1.58,EC,1700356577
362,mutuali,-14.8706,37.0044,24.33000000000004,62,28,0.91,MZ,1700356743
363,acapulco de juarez,16.8634,-99.8901,28.900000000000034,74,20,1.54,MX,1700356743
364,nantucket,41.2835,-70.0995,7.060000000000002,77,100,6.69,US,1700356743
365,tual,-5.6667,132.75,27.980000000000018,71,15,2.21,ID,1700356743
366,touros,-5.1989,-35.4608,26.310000000000002,79,22,5.35,BR,1700356743
367,coquimbo,-29.9533,-71.3436,13.850000000000023,94,0,2.57,CL,1700356744
368,constantia,44.1833,28.65,2.6100000000000136,97,100,17.75,RO,1700356446
369,hampton,37.0299,-76.3452,13.330000000000041,55,0,7.72,US,1700356744
370,igrim,63.1906,64.4162,-15.909999999999968,95,100,1.46,RU,1700356744
371,ulysses,37.5814,-101.3552,17.02000000000004,39,40,6.69,US,1700356744
372,abepura,-2.6333,140.5833,31.450000000000045,58,20,2.06,ID,1700356744
373,agogo,6.8,-1.0819,22.180000000000007,93,55,1.48,GH,1700356744
374,conde,-7.2597,-34.9075,25.700000000000045,83,20,4.63,BR,1700356744
375,galveston,29.3669,-94.9669,20.03000000000003,83,0,2.57,US,1700356737
376,cheremukhovo,60.3484,59.9851,-10.099999999999966,96,100,1.34,RU,1700356744
377,bertioga,-23.8544,-46.1386,27.79000000000002,64,100,3.3,BR,1700356745
378,paramirim,-13.4425,-42.2389,25.470000000000027,58,25,0.3,BR,1700356745
379,mana,5.6592,-53.7767,25.629999999999995,90,0,3.53,GF,1700356745
380,broome,42.2506,-75.833,2.2100000000000364,79,0,2.06,US,1700356745
381,pasni,25.2631,63.471,23.29000000000002,66,0,2.46,PK,1700356745
382,yemetsk,63.4721,41.7941,-7.3700000000000045,95,99,2.83,RU,1700356745
383,pyin oo lwin,22.0333,96.4667,15.680000000000007,97,100,1.43,MM,1700356745
384,yuzhno-kurilsk,44.0306,145.8556,5.760000000000048,84,99,10.7,RU,1700356745
385,qui nhon,13.7667,109.2333,22.610000000000014,85,100,7.45,VN,1700356745
386,zapolyarnyy,69.4154,30.8136,-15.399999999999977,100,96,2.43,RU,1700356746
387,lospalos,-8.5186,127.0025,29.720000000000027,55,85,4.02,TL,1700356746
388,chu,43.5983,73.7614,7.090000000000032,82,100,2.69,KZ,1700356746
389,cerkes,40.8116,32.8936,1.650000000000034,95,100,3.43,TR,1700356746
390,sola,-13.8833,167.55,27.0,82,4,7.76,VU,1700356746
391,darab,28.7519,54.5444,14.53000000000003,63,0,0.69,IR,1700356746
392,tabou,4.423,-7.3528,25.650000000000034,86,100,1.14,CI,1700356746
393,bikenibeu village,1.3673,173.1241,31.980000000000018,70,20,2.06,KI,1700356746
394,aracati,-4.5617,-37.7697,26.700000000000045,80,22,5.49,BR,1700356746
395,vadso,70.0744,29.7487,-7.909999999999968,86,93,5.14,NO,1700356746
396,essaouira,31.5125,-9.77,12.720000000000027,100,0,3.09,MA,1700356747
397,port blair,11.6667,92.75,28.02000000000004,78,40,4.12,IN,1700356487
398,labrador city,52.9463,-66.9114,-13.049999999999955,92,40,1.03,CA,1700356516
399,orchard homes,46.8633,-114.0484,-0.9199999999999591,93,20,0.0,US,1700356747
400,kargopol',61.5071,38.9456,-5.099999999999966,93,99,3.48,RU,1700356747
401,remire-montjoly,4.9167,-52.2667,28.02000000000004,83,75,4.12,GF,1700356747
402,revda,56.801,59.9303,-8.549999999999955,84,100,4.6,RU,1700356747
403,puerto baquerizo moreno,-0.9,-89.6,22.53000000000003,81,33,3.73,EC,1700356747
404,miquelon,47.0975,-56.3814,10.0,94,100,13.91,PM,1700356747
405,as sulayyil,20.4607,45.5779,22.140000000000043,57,91,5.27,SA,1700356747
406,ilorin,8.5,4.55,26.010000000000048,42,100,0.48,NG,1700356631
407,pariaman,-0.619,100.12,28.03000000000003,85,99,0.63,ID,1700356748
408,mendi,-6.1761,143.6513,22.560000000000002,60,63,1.96,PG,1700356748
409,taungoo,18.9333,96.4333,22.82000000000005,91,79,2.19,MM,1700356748
410,fortuna,40.5982,-124.1573,11.480000000000018,95,75,4.63,US,1700356669
411,sadri,25.1833,73.4333,17.360000000000014,51,0,1.67,IN,1700356748
412,grand falls-windsor,48.9332,-55.6649,11.390000000000043,91,100,4.92,CA,1700356731
413,ivdel',60.6911,60.4206,-9.42999999999995,81,38,2.24,RU,1700356748
414,eforie sud,44.0229,28.6494,2.670000000000016,96,100,18.39,RO,1700356748
415,villa luvianos,18.9167,-100.4,18.420000000000016,74,0,1.26,MX,1700356748
416,rocky mountain house,52.3668,-114.9188,0.060000000000002274,74,65,1.03,CA,1700356748
417,sumbe,-11.2061,13.8437,25.810000000000002,89,95,2.11,AO,1700356749
418,yarmouth,41.7057,-70.2286,7.2000000000000455,79,75,12.52,US,1700356749
419,weihai,37.5017,122.1136,10.100000000000023,56,0,6.11,CN,1700356749
420,cidreira,-30.1811,-50.2056,19.600000000000023,86,3,6.37,BR,1700356749
421,hassi messaoud,31.6804,6.0729,17.850000000000023,33,0,2.94,DZ,1700356749
422,bodaybo,57.8506,114.1933,-7.649999999999977,98,100,1.29,RU,1700356749
423,usogorsk,63.4106,48.6872,-8.519999999999982,94,100,4.02,RU,1700356749
424,la'ie,21.6477,-157.9253,27.980000000000018,67,93,0.89,US,1700356749
425,uturoa,-16.7333,-151.4333,25.860000000000014,80,34,10.35,PF,1700356749
426,sampit,-2.5333,112.95,27.720000000000027,84,59,1.1,ID,1700356749
427,asekeyevo,53.5742,52.7972,-5.539999999999964,67,0,1.83,RU,1700356749
428,drabiv,49.963,32.1529,-1.8799999999999955,78,100,5.04,UA,1700356750
429,poronaysk,49.2167,143.1167,3.57000000000005,69,97,7.64,RU,1700356750
430,midelt,32.6852,-4.7451,11.900000000000034,37,0,0.64,MA,1700356750
431,kalmunai,7.4167,81.8167,25.850000000000023,83,97,1.23,LK,1700356750
432,klaksvik,62.2266,-6.589,8.510000000000048,96,100,13.37,FO,1700356750
433,pangkalanbuun,-2.6833,111.6167,28.590000000000032,78,22,0.87,ID,1700356750
434,inari,68.906,27.0288,-18.889999999999986,96,99,1.55,FI,1700356750
435,paradip garh,20.3167,86.6167,23.05000000000001,82,15,3.91,IN,1700356750
436,saint-jean-de-monts,46.7833,-2.0667,15.260000000000048,94,100,8.87,FR,1700356750
437,tianpeng,30.9866,103.9393,11.460000000000036,73,0,0.21,CN,1700356750
438,horta,38.5333,-28.6333,16.120000000000005,82,100,6.26,PT,1700356751
439,san fernando,15.0286,120.6898,28.850000000000023,64,63,3.99,PH,1700356165
440,tra mhor,52.1624,-7.1524,12.270000000000039,73,81,3.58,IE,1700356751
441,sur,22.5667,59.5289,24.360000000000014,71,0,0.37,OM,1700356751
442,vanimo,-2.6741,141.3028,29.840000000000032,65,99,3.82,PG,1700356751
443,beira,-19.8436,34.8389,22.05000000000001,94,20,2.47,MZ,1700356751
444,porto novo,6.4965,2.6036,26.129999999999995,86,100,2.26,BJ,1700356751
445,vilyuchinsk,52.9306,158.4028,2.150000000000034,91,100,2.93,RU,1700356751
446,smithers,54.7804,-127.1743,3.180000000000007,100,100,1.03,CA,1700356751
447,port alfred,-33.5906,26.891,17.840000000000032,88,100,1.13,ZA,1700356752
448,baharly,38.4362,57.4316,13.260000000000048,58,0,3.62,TM,1700356752
449,gulf shores,30.246,-87.7008,18.890000000000043,79,0,5.24,US,1700356752
450,camayenne,9.535,-13.6878,27.05000000000001,83,40,1.03,GN,1700356752
451,port augusta,-32.5,137.7667,27.420000000000016,28,9,6.54,AU,1700356752
452,vernon,50.2581,-119.2691,3.2000000000000455,80,93,1.54,CA,1700356752
453,gangtok,27.3333,88.6167,10.29000000000002,63,0,2.09,IN,1700356752
454,zabkowice slaskie,50.5897,16.8124,2.8600000000000136,99,100,2.12,PL,1700356752
455,scone,56.4194,-3.4051,11.090000000000032,87,100,0.45,GB,1700356752
456,cox's bazar,21.4532,91.9798,23.360000000000014,91,21,1.85,BD,1700356752
457,la ronge,55.1001,-105.2842,3.140000000000043,81,100,2.06,CA,1700356753
458,floro,61.5996,5.0328,6.980000000000018,45,98,6.69,NO,1700356753
459,kendari,-3.945,122.4989,30.78000000000003,61,2,1.21,ID,1700356753
460,srandakan,-7.9386,110.2506,27.900000000000034,72,70,3.09,ID,1700356753
461,tan an,10.5333,106.4167,26.010000000000048,75,100,3.46,VN,1700356753
462,kuanda,56.3161,116.0806,-13.46999999999997,96,76,0.7,RU,1700356753
463,masvingo,-20.0637,30.8277,20.79000000000002,32,32,2.18,ZW,1700356753
464,dunedin,-45.8742,170.5036,14.330000000000041,71,100,2.44,NZ,1700356594
465,diok'nisi,41.6293,42.3917,6.390000000000043,90,95,4.17,GE,1700356753
466,sangin,32.0728,64.8359,14.830000000000041,52,8,2.82,AF,1700356753
467,kristiansund,63.1115,7.732,1.3600000000000136,55,100,3.09,NO,1700356754
468,puerto rico,-26.796,-55.024,18.04000000000002,96,0,1.13,AR,1700356501
469,kolkwitz,51.75,14.25,4.57000000000005,84,100,0.89,DE,1700356599
470,hun,29.1268,15.9477,15.75,82,0,3.33,LY,1700356754
471,danilovka,50.3557,44.1168,-3.1999999999999886,87,90,5.1,RU,1700356754
472,guiuan,11.0333,125.7247,27.25,87,100,7.03,PH,1700356754
473,usevia,-7.1,31.2333,21.650000000000034,72,63,1.46,TZ,1700356754
474,kaoma,-14.7833,24.8,19.57000000000005,35,86,2.39,ZM,1700356754
475,xapuri,-10.6517,-68.5044,31.33000000000004,41,100,1.42,BR,1700356754
476,ta`u,-14.2336,-169.5144,27.620000000000005,72,32,8.77,AS,1700356754
477,nadvoitsy,63.8667,34.3167,-7.3700000000000045,93,84,4.06,RU,1700356755
478,mananjary,-21.2167,48.3333,22.74000000000001,88,100,2.96,MG,1700356755
479,hirara,24.8,125.2833,23.150000000000034,56,20,7.2,JP,1700356755
480,kisangani,0.5167,25.2,21.560000000000002,98,100,1.17,CD,1700356755
481,sen monorom,12.45,107.2,19.54000000000002,76,100,4.92,KH,1700356755
482,argo,37.6333,22.7333,14.32000000000005,61,1,1.45,GR,1700356755
483,mammoth lakes,37.6485,-118.9721,4.400000000000034,73,100,4.12,US,1700356630
484,san pedro pochutla,15.7333,-96.4667,26.840000000000032,93,45,0.58,MX,1700356755
485,lindley,-27.8791,27.9135,15.580000000000041,72,3,0.62,ZA,1700356755
486,harper,4.375,-7.7169,25.650000000000034,85,100,1.24,LR,1700356755
487,santiago de cao,-7.9589,-79.2392,19.07000000000005,82,0,3.6,PE,1700356756
488,glace bay,46.1969,-59.957,13.770000000000039,95,100,14.92,CA,1700356756
489,baker city,44.7749,-117.8344,7.550000000000011,75,20,5.66,US,1700356756
490,bodo,67.28,14.405,1.5400000000000205,96,100,2.06,NO,1700356756
491,el abiodh sidi cheikh,32.893,0.5484,14.230000000000018,33,0,2.55,DZ,1700356756
492,plettenberg bay,-34.0527,23.3716,16.410000000000025,72,100,1.37,ZA,1700356756
493,arar,30.9753,41.0381,15.010000000000048,77,40,4.12,SA,1700356756
494,salalah,17.0151,54.0924,26.05000000000001,83,40,1.54,OM,1700356756
495,bratsk,56.1325,101.6142,2.2700000000000387,80,100,7.21,RU,1700356756
496,shiqi,22.5168,113.3852,19.950000000000045,38,63,2.15,CN,1700356756
497,shilovo,54.3204,40.874,-8.189999999999998,87,4,0.72,RU,1700356757
498,menongue,-14.6585,17.691,22.30000000000001,56,93,2.19,AO,1700356757
499,sycamore,41.9889,-88.6868,7.75,58,0,3.6,US,1700356757
500,quellon,-43.1167,-73.6167,9.53000000000003,89,100,3.45,CL,1700356580
501,iquique,-20.2208,-70.1431,18.02000000000004,73,37,0.98,CL,1700356757
502,acarau,-2.8856,-40.12,26.629999999999995,81,17,6.54,BR,1700356757
503,brak,27.5496,14.2714,17.25,36,0,4.49,LY,1700356757
504,xinyuan,37.3,99.0,-7.729999999999961,15,0,2.26,CN,1700356758
505,tsiombe,-25.3,45.4833,22.32000000000005,87,2,1.09,MG,1700356758
506,dingzhou,38.5131,114.9956,6.060000000000002,33,0,1.76,CN,1700356758
507,fujin,47.26,132.0322,-5.899999999999977,89,100,4.55,CN,1700356758
508,fauske,67.2588,15.3918,1.5400000000000205,96,100,2.71,NO,1700356758
509,newport,51.5877,-2.9984,13.060000000000002,87,65,12.09,GB,1700356758
510,lorengau,-2.0226,147.2712,29.260000000000048,70,3,4.66,PG,1700356758
511,pascagoula,30.3658,-88.5561,17.02000000000004,92,0,0.0,US,1700356758
512,ust'-ilimsk,58.0006,102.6619,-3.089999999999975,82,100,6.15,RU,1700356758
513,coahuayana de hidalgo,18.7,-103.6583,26.77000000000004,87,71,1.1,MX,1700356759
514,port-gentil,-0.7193,8.7815,24.180000000000007,94,100,0.55,GA,1700356759
515,monrovia,6.3005,-10.7969,24.870000000000005,84,95,1.56,LR,1700356759
516,kievka,50.2619,71.5514,-2.4499999999999886,80,100,6.72,KZ,1700356759
517,umba,66.6871,34.3429,-10.939999999999998,93,56,2.14,RU,1700356759
518,kargil,34.5667,76.1,-2.0499999999999545,38,50,1.19,IN,1700356759
519,el calafate,-50.3408,-72.2768,6.0400000000000205,63,1,4.23,AR,1700356759
520,archangelos,36.2149,28.1149,12.990000000000009,52,7,11.64,GR,1700356759
521,taloqan,36.7361,69.5345,13.200000000000045,68,100,1.12,AF,1700356759
522,san andres,12.5847,-81.7006,29.010000000000048,70,20,4.63,CO,1700356759
523,juegang,32.3174,121.1855,11.28000000000003,43,0,5.16,CN,1700356759
524,monett,36.929,-93.9277,10.900000000000034,60,0,1.54,US,1700356760
525,hit,33.6416,42.8251,17.900000000000034,55,0,4.66,IQ,1700356760
526,frankenmuth,43.3317,-83.738,6.270000000000039,68,0,3.6,US,1700356760
527,alofi,-19.0595,-169.9187,27.939999999999998,69,29,4.63,NU,1700356760
528,praia da vitoria,38.7333,-27.0667,17.640000000000043,72,20,9.41,PT,1700356760
529,agat village,13.3886,144.6585,29.52000000000004,87,75,5.66,GU,1700356760
530,xam nua,20.4197,104.0439,14.140000000000043,54,20,0.7,LA,1700356760
531,hasaki,35.7333,140.8333,17.220000000000027,40,0,2.74,JP,1700356760
532,kangding,30.0513,101.9603,5.270000000000039,86,75,3.07,CN,1700356760
533,sao jose da coroa grande,-8.8978,-35.1478,25.430000000000007,83,0,4.05,BR,1700356761
534,tabatinga,-4.2525,-69.9381,26.05000000000001,100,20,0.0,BR,1700356761
535,walvis bay,-22.9575,14.5053,16.720000000000027,81,0,3.86,NA,1700356761
536,hohhot,40.8106,111.6522,-1.839999999999975,50,0,1.0,CN,1700356761
537,ketchikan,55.3422,-131.6461,8.990000000000009,93,100,4.63,US,1700356761
538,calama,-22.4667,-68.9333,17.27000000000004,12,0,3.09,CL,1700356761
539,kosh-agach,50.0,88.6667,-4.269999999999982,73,5,0.45,RU,1700356761
540,muli,2.9167,73.5667,28.220000000000027,74,60,3.31,MV,1700356761
541,gisborne,-38.6533,178.0042,16.99000000000001,89,100,3.5,NZ,1700356747
542,nyurba,63.2842,118.3319,-17.95999999999998,99,92,1.11,RU,1700356761
543,san angelo,31.4638,-100.437,14.220000000000027,85,100,3.6,US,1700356749
544,daru,-9.0763,143.2092,29.07000000000005,65,94,5.48,PG,1700356762
545,shiloh,38.5614,-89.8973,10.060000000000002,44,0,1.42,US,1700356762
546,padang,-0.9492,100.3543,28.03000000000003,86,100,0.49,ID,1700356762
547,north bend,43.4065,-124.2243,12.140000000000043,87,100,9.26,US,1700356762
548,sao geraldo do araguaia,-6.4006,-48.555,27.670000000000016,62,57,1.28,BR,1700356762
549,lodja,-3.4833,23.4333,21.350000000000023,100,100,0.79,CD,1700356762
550,xiongzhou,25.1167,114.3,14.730000000000018,55,87,1.06,CN,1700356762
551,freeport,40.6576,-73.5832,7.980000000000018,48,0,5.66,US,1700356762
552,mogocha,53.7333,119.7667,-10.519999999999982,82,11,1.14,RU,1700356763
553,castillos,-34.1667,-53.8333,12.04000000000002,51,100,3.07,UY,1700356763
554,machico,32.7,-16.7667,20.400000000000034,81,40,2.57,PT,1700356763
555,aldan,58.6031,125.3894,-9.560000000000002,95,100,2.2,RU,1700356763
556,ciudad pemex,17.9,-92.5,24.450000000000045,84,97,1.54,MX,1700356763
557,polyarnyy,69.1989,33.4478,-9.449999999999989,90,42,3.56,RU,1700356763
558,fomboni,-12.28,43.7425,27.560000000000002,79,0,2.91,KM,1700356763
559,ouesso,1.6136,16.0517,22.120000000000005,97,61,0.27,CG,1700356763
560,kitimat,54.0524,-128.6534,6.210000000000036,64,100,0.83,CA,1700356763
561,mokhotlong,-29.2894,29.0675,13.28000000000003,53,4,1.18,LS,1700356763
562,toliara,-23.35,43.6667,23.439999999999998,87,0,1.89,MG,1700356764
563,coronel dorrego,-38.7187,-61.2873,9.560000000000002,46,7,3.84,AR,1700356764
564,cooper's town,26.8667,-77.5167,24.840000000000032,79,60,7.53,BS,1700356764
565,cedral,23.8,-100.7333,20.83000000000004,52,5,2.78,MX,1700356764
566,miri,4.4148,114.0089,24.08000000000004,94,40,2.57,MY,1700356507
567,east ballina,-28.8667,153.5833,26.0,60,51,3.98,AU,1700356764
568,greenland,43.0362,-70.8328,3.1200000000000045,77,20,2.57,US,1700356764
569,atherton,53.5237,-2.4935,12.420000000000016,83,98,2.24,GB,1700356764
570,belley,45.8333,5.6667,11.120000000000005,91,100,0.61,FR,1700356764
571,haimen,23.1935,116.6142,16.939999999999998,55,4,3.75,CN,1700356764
572,cole harbour,44.6724,-63.4751,13.660000000000025,97,100,0.89,CA,1700356765
573,carutapera,-1.195,-46.02,26.74000000000001,82,96,3.61,BR,1700356765
574,bubaque,11.2833,-15.8333,28.200000000000045,76,8,5.45,GW,1700356708
575,linyi,35.0631,118.3428,10.0,58,0,3.69,CN,1700356765
576,mogok,22.9167,96.5,15.080000000000041,99,100,0.89,MM,1700356765
577,puerto deseado,-47.7503,-65.8938,7.830000000000041,59,44,7.79,AR,1700356765
578,sinjar,36.3209,41.8754,14.140000000000043,71,2,5.25,IQ,1700356765
579,sisimiut,66.9395,-53.6735,-0.5600000000000023,92,100,6.26,GL,1700356765
580,santo antonio do ica,-3.1022,-67.9397,23.980000000000018,97,89,0.63,BR,1700356765
581,belyy yar,53.6039,91.3903,-1.0600000000000023,100,99,0.0,RU,1700356765
582,namtsy,62.7161,129.6658,-25.269999999999982,97,86,2.19,RU,1700356765
583,mizdah,31.4451,12.9801,12.460000000000036,86,0,2.33,LY,1700356766
584,novyy urgal,51.0736,132.5642,-6.479999999999961,88,100,0.11,RU,1700356766
585,izki,22.9333,57.7667,20.010000000000048,84,0,0.57,OM,1700356766
586,tadine,-21.55,167.8833,25.99000000000001,65,10,3.93,NC,1700356766
587,nova vicosa,-17.8919,-39.3719,25.75,78,6,8.21,BR,1700356766
