City_ID,City,Lat,Lng,Max Temp,Humidity,Cloudiness,Wind Speed,Country,Date
0,jamestown,42.097,-79.2353,5.57000000000005,66,0,1.54,US,1699801451
1,ciudad lazaro cardenas,17.9583,-102.2,27.53000000000003,73,19,1.76,MX,1699801546
2,la passe,45.5549,-0.8967,17.129999999999995,88,100,8.66,FR,1699801546
3,invercargill,-46.4,168.35,12.230000000000018,95,92,3.13,NZ,1699801546
4,ribeira grande,38.5167,-28.7,21.54000000000002,88,20,10.8,PT,1699801546
5,utrik,11.2278,169.8474,27.560000000000002,79,100,9.7,MH,1699801546
6,adamstown,-25.066,-130.1015,22.670000000000016,79,98,7.67,PN,1699801546
7,patnongon,10.9132,121.9937,26.27000000000004,78,4,2.21,PH,1699801546
8,albany,42.6001,-73.9662,1.6800000000000068,64,7,0.89,US,1699801452
9,udachny,66.4167,112.4,-20.169999999999987,100,83,1.69,RU,1699801546
10,hawaiian paradise park,19.5933,-154.9731,21.689999999999998,87,0,4.12,US,1699801546
11,lebu,-37.6167,-73.65,11.100000000000023,53,3,6.86,CL,1699801390
12,papatowai,-46.5619,169.4708,12.200000000000045,74,100,1.88,NZ,1699801547
13,walvis bay,-22.9575,14.5053,27.53000000000003,41,0,5.66,NA,1699801547
14,kaa-khem,51.6833,94.7333,-13.659999999999968,88,51,1.33,RU,1699801547
15,colares,38.7992,-9.4469,22.110000000000014,87,40,5.36,PT,1699801547
16,colonia,50.9333,6.95,9.980000000000018,78,20,2.06,DE,1699801380
17,pangody,65.85,74.4859,-6.199999999999989,97,98,4.44,RU,1699801547
18,iskateley,67.6803,53.1512,-8.319999999999993,94,41,2.68,RU,1699801547
19,saipan,15.1355,145.701,28.390000000000043,78,40,6.69,MP,1699801547
20,stanley,54.868,-1.6985,7.090000000000032,88,20,2.57,GB,1699801547
21,waitangi,-43.9535,-176.5597,12.680000000000007,86,61,1.79,NZ,1699801548
22,copala,16.65,-98.9833,27.910000000000025,73,7,0.63,MX,1699801548
23,ellettsville,39.2339,-86.625,8.620000000000005,72,0,4.12,US,1699801548
24,bredasdorp,-34.5322,20.0403,19.860000000000014,50,0,5.94,ZA,1699801548
25,ust-nera,64.5667,143.2,-24.46999999999997,98,100,1.0,RU,1699801548
26,homer,59.6425,-151.5483,-2.069999999999993,81,0,2.57,US,1699801548
27,lazaro cardenas,17.9583,-102.2,27.53000000000003,73,19,1.76,MX,1699801548
28,asmara,15.3333,38.9333,16.450000000000045,70,79,2.52,ER,1699801548
29,hirado,33.3597,129.5531,9.660000000000025,59,43,10.89,JP,1699801548
30,karratha,-20.7377,116.8463,23.710000000000036,64,0,6.87,AU,1699801549
31,bethel,41.3712,-73.414,4.560000000000002,65,20,3.6,US,1699801549
32,as sulayyil,20.4607,45.5779,28.140000000000043,28,70,3.98,SA,1699801549
33,northam,51.0333,-4.2167,12.990000000000009,95,100,7.93,GB,1699801549
34,talnakh,69.4865,88.3972,-3.769999999999982,95,100,5.55,RU,1699801550
35,hamilton,39.1834,-84.5333,9.220000000000027,67,32,2.24,US,1699801324
36,santana,-0.0583,-51.1817,34.10000000000002,49,40,5.14,BR,1699801268
37,xai-xai,-25.0519,33.6442,24.660000000000025,81,21,7.68,MZ,1699801551
38,fort st. john,56.2499,-120.8529,0.9399999999999977,64,40,8.23,CA,1699801551
39,pitkyaranta,61.5734,31.4792,3.0600000000000023,90,100,8.78,RU,1699801551
40,college,64.8569,-147.8028,-8.029999999999973,79,100,0.0,US,1699801551
41,grytviken,-54.2811,-36.5092,4.970000000000027,87,72,2.94,GS,1699801552
42,west island,-12.1568,96.8225,26.99000000000001,83,40,5.66,CC,1699801552
43,rockland,41.1668,-74.0496,5.170000000000016,64,99,0.89,US,1699801105
44,punta arenas,-53.15,-70.9167,10.060000000000002,53,40,8.75,CL,1699801552
45,vorgashor,67.5833,63.95,-10.370000000000005,97,91,3.75,RU,1699801552
46,alofi,-19.0595,-169.9187,21.939999999999998,94,100,7.72,NU,1699801552
47,cidreira,-30.1811,-50.2056,21.379999999999995,99,100,4.28,BR,1699801552
48,mount gambier,-37.8333,140.7667,7.520000000000039,94,2,1.62,AU,1699801553
49,enewetak,11.3474,162.3373,26.590000000000032,88,100,9.75,MH,1699801553
50,thompson,55.7435,-97.8558,-0.9099999999999682,86,100,3.6,CA,1699801553
51,puerto natales,-51.7236,-72.4875,11.25,46,75,6.69,CL,1699801382
52,edinburgh of the seven seas,-37.0676,-12.3116,14.330000000000041,76,5,7.37,SH,1699801553
53,la'ie,21.6477,-157.9253,24.980000000000018,85,37,5.36,US,1699801553
54,polyarnyy,69.1989,33.4478,-7.779999999999973,99,93,4.32,RU,1699801553
55,praia da vitoria,38.7333,-27.0667,22.140000000000043,64,40,12.74,PT,1699801554
56,zhezqazghan,47.7833,67.7667,2.32000000000005,93,100,5.0,KZ,1699801554
57,isla mujeres,21.2311,-86.731,29.03000000000003,77,95,6.27,MX,1699801554
58,semirara,12.0697,121.3986,28.610000000000014,76,12,9.27,PH,1699801554
59,sao miguel do araguaia,-13.275,-50.1628,38.5,23,30,3.32,BR,1699801255
60,vila velha,-20.3297,-40.2925,35.97000000000003,57,0,6.17,BR,1699801284
61,puerto ayora,-0.7393,-90.3518,26.980000000000018,99,67,0.45,EC,1699801554
62,mar del plata,-38.0023,-57.5575,17.75,42,0,6.71,AR,1699801444
63,sola,-13.8833,167.55,25.53000000000003,74,95,13.25,VU,1699801554
64,mamers,48.3333,0.25,14.480000000000018,87,96,5.29,FR,1699801555
65,yarmouth,41.7057,-70.2286,7.2000000000000455,64,100,3.13,US,1699801555
66,marsh harbour,26.5412,-77.0636,26.210000000000036,65,94,4.82,BS,1699801555
67,namibe,-15.1961,12.1522,24.78000000000003,64,12,5.34,AO,1699801555
68,fale old settlement,-9.3852,-171.2468,28.5,77,11,2.97,TK,1699801555
69,margaret river,-33.95,115.0667,16.670000000000016,66,95,6.91,AU,1699801463
70,georgiyevka,43.0369,74.7114,6.020000000000039,87,75,2.0,KZ,1699801555
71,isafjordur,66.0755,-23.124,3.0200000000000387,70,0,1.03,IS,1699801555
72,fortuna,40.5982,-124.1573,7.970000000000027,98,0,2.24,US,1699801556
73,port lincoln,-34.7333,135.8667,12.960000000000036,80,82,6.23,AU,1699801556
74,east london,-33.0153,27.9116,20.52000000000004,64,20,10.29,ZA,1699801556
75,howrah,22.5892,88.3103,25.0,73,3,2.06,IN,1699801556
76,longyearbyen,78.2186,15.6401,-4.089999999999975,74,75,3.09,SJ,1699801429
77,ebon,4.582,168.6964,27.390000000000043,79,100,2.68,MH,1699801556
78,port mathurin,-19.6833,63.4167,25.55000000000001,76,75,2.06,MU,1699801556
79,bubaque,11.2833,-15.8333,28.58000000000004,58,4,1.89,GW,1699801556
80,ko pha ngan,9.7578,100.0291,26.379999999999995,73,100,5.98,TH,1699801394
81,vernon,50.2581,-119.2691,3.740000000000009,60,100,3.09,CA,1699801556
82,sao joao da barra,-21.6403,-41.0511,39.05000000000001,61,48,4.07,BR,1699801557
83,ushuaia,-54.8,-68.3,7.810000000000002,53,0,2.57,AR,1699801557
84,leeton,-34.5667,146.4,14.379999999999995,50,0,4.81,AU,1699801557
85,st. john's,47.5649,-52.7093,2.2100000000000364,90,75,6.69,CA,1699801557
86,ilulissat,69.2167,-51.1,-8.989999999999952,62,20,1.03,GL,1699801557
87,hithadhoo,-0.6,73.0833,27.700000000000045,81,22,3.11,MV,1699801557
88,port-aux-francais,-49.35,70.2167,5.2000000000000455,93,100,17.2,TF,1699801557
89,tamanrasset,22.785,5.5228,27.950000000000045,9,0,5.14,DZ,1699801368
90,queenstown,-31.8976,26.8753,20.470000000000027,36,1,6.83,ZA,1699801557
91,yangambi,0.8102,24.4336,23.04000000000002,90,100,1.5,CD,1699801558
92,gisborne,-38.6533,178.0042,11.100000000000023,81,0,2.67,NZ,1699801558
93,tupiza,-21.45,-65.7167,22.55000000000001,16,23,2.47,BO,1699801558
94,borovskoy,53.8,64.15,4.810000000000002,89,80,3.16,KZ,1699801558
95,ladario,-19.0047,-57.6017,39.160000000000025,32,0,6.17,BR,1699801558
96,masterton,-40.9597,175.6575,12.710000000000036,92,99,2.31,NZ,1699801558
97,hillsborough,37.5741,-122.3794,14.650000000000034,83,40,2.57,US,1699801559
98,oranjemund,-28.55,16.4333,18.230000000000018,64,4,12.61,NA,1699801559
99,carauari,-4.8828,-66.8958,35.77000000000004,44,26,1.41,BR,1699801380
100,port alfred,-33.5906,26.891,20.100000000000023,66,7,3.13,ZA,1699801559
101,lihue,21.9789,-159.3672,23.58000000000004,88,100,5.66,US,1699801460
102,yellowknife,62.456,-114.3525,-3.7099999999999795,99,100,7.2,CA,1699801287
103,susuman,62.7833,148.1667,-34.069999999999965,96,67,0.1,RU,1699801560
104,tura,25.5198,90.2201,19.310000000000002,88,0,1.57,IN,1699801560
105,qaqortoq,60.7167,-46.0333,-3.0399999999999636,81,25,1.26,GL,1699801560
106,shakawe,-18.3667,21.85,38.370000000000005,11,46,2.06,BW,1699801560
107,afaahiti,-17.75,-149.2833,24.930000000000007,82,92,2.2,PF,1699801560
108,tchollire,8.4022,14.1698,29.99000000000001,47,81,0.36,CM,1699801560
109,keila,59.3036,24.4131,7.010000000000048,75,100,2.57,EE,1699801561
110,luganville,-15.5333,167.1667,24.450000000000045,77,99,5.86,VU,1699801402
111,bilibino,68.0546,166.4372,-13.71999999999997,95,100,4.38,RU,1699801561
112,johnson city,36.3134,-82.3535,12.800000000000011,52,0,2.57,US,1699801561
113,atafu village,-8.5421,-172.5159,28.480000000000018,74,98,0.98,TK,1699801561
114,havre,49.5833,0.3333,12.970000000000027,94,75,6.69,FR,1699801561
115,new norfolk,-42.7826,147.0587,8.29000000000002,93,91,1.51,AU,1699801561
116,nikolayevsk-on-amure,53.1406,140.73,-7.539999999999964,91,100,5.38,RU,1699801561
117,barth,54.3635,12.7249,7.810000000000002,80,100,3.05,DE,1699801562
118,mamfe,5.754,9.3123,30.53000000000003,66,49,1.36,CM,1699801562
119,tiksi,71.6872,128.8694,-16.799999999999955,91,64,6.18,RU,1699801562
120,axim,4.8699,-2.2405,29.24000000000001,72,32,3.93,GH,1699801562
121,mahina,-17.5065,-149.489,25.870000000000005,78,0,3.6,PF,1699801562
122,olonkinbyen,70.9221,-8.7187,-3.7199999999999704,66,50,3.25,SJ,1699801562
123,envira,-7.3,-70.2167,27.99000000000001,74,90,1.3,BR,1699801563
124,magong,23.5654,119.5863,22.5,84,2,19.14,TW,1699801563
125,quarai,-30.3875,-56.4514,23.120000000000005,87,79,10.05,BR,1699801563
126,flying fish cove,-10.4217,105.6791,25.82000000000005,78,75,4.12,CX,1699801563
127,kingston,17.997,-76.7936,30.53000000000003,74,20,3.09,JM,1699801341
128,xinyuan,37.3,99.0,-4.6200000000000045,19,0,7.21,CN,1699801564
129,dobryanka,58.4619,56.4165,0.12999999999999545,84,96,2.29,RU,1699801564
130,moranbah,-22.0016,148.0466,19.620000000000005,75,0,5.12,AU,1699801564
131,wailua homesteads,22.0669,-159.378,23.439999999999998,89,100,7.2,US,1699801564
132,georgetown,5.4112,100.3354,28.970000000000027,84,20,0.0,MY,1699801285
133,isla vista,34.4133,-119.861,21.010000000000048,37,0,0.0,US,1699801564
134,baise city,23.8997,106.6133,16.420000000000016,91,100,1.33,CN,1699801564
135,barra de santo antonio,-9.4047,-35.5072,30.600000000000023,61,5,5.24,BR,1699801564
136,iqaluit,63.7506,-68.5145,-16.149999999999977,77,75,4.63,CA,1699801401
137,fort bragg,35.139,-79.006,12.680000000000007,79,100,5.14,US,1699801565
138,bikenibeu village,1.3673,173.1241,26.980000000000018,89,75,2.06,KI,1699801565
139,kiunga,-6.1219,141.2906,23.05000000000001,80,46,1.29,PG,1699801565
140,gudlavalleru,16.3476,81.0534,26.08000000000004,78,100,3.15,IN,1699801565
141,tetouan,35.5711,-5.3724,25.430000000000007,53,0,6.17,MA,1699801565
142,kavaratti,10.5669,72.642,28.150000000000034,74,100,2.7,IN,1699801565
143,kuching,1.55,110.3333,27.24000000000001,96,40,1.54,MY,1699801566
144,katsuura,35.1333,140.3,12.010000000000048,88,21,5.73,JP,1699801566
145,carnarvon,-24.8667,113.6333,21.150000000000034,79,9,5.42,AU,1699801566
146,mora,11.0461,14.1401,35.700000000000045,14,74,3.08,CM,1699801566
147,yaren,-0.5472,166.916,28.650000000000034,83,100,11.49,NR,1699801566
148,salekhard,66.53,66.6019,-9.049999999999955,88,23,3.95,RU,1699801566
149,salinopolis,-0.6136,-47.3561,30.230000000000018,59,51,4.59,BR,1699801567
150,civitavecchia,42.0933,11.7967,18.900000000000034,84,8,5.42,IT,1699801567
151,arvayheer,46.2639,102.775,-7.659999999999968,22,100,0.67,MN,1699801567
152,luderitz,-26.6481,15.1594,26.460000000000036,41,0,15.03,NA,1699801567
153,sal rei,16.1833,-22.9167,30.110000000000014,51,15,6.17,CV,1699801567
154,guangyuan,32.442,105.823,7.140000000000043,83,100,2.25,CN,1699801567
155,klyuchi,52.2667,79.1667,6.160000000000025,80,99,5.87,RU,1699801567
156,tazovsky,67.4667,78.7,-4.17999999999995,96,100,4.62,RU,1699801568
157,pisco,-13.7,-76.2167,21.680000000000007,78,0,4.63,PE,1699801568
158,port-cartier,50.0334,-66.8654,-1.25,68,5,3.96,CA,1699801568
159,kruisfontein,-34.0033,24.7314,17.629999999999995,55,8,7.58,ZA,1699801568
160,lompoc,34.6391,-120.4579,14.770000000000039,60,0,3.09,US,1699801568
161,alice springs,-23.7,133.8833,25.75,31,99,3.6,AU,1699801569
162,santyoku,37.4406,129.1708,3.1299999999999955,50,9,3.6,KR,1699801569
163,tasqala,51.1167,50.3167,4.600000000000023,64,100,6.81,KZ,1699801569
164,phan rang-thap cham,11.5667,108.9833,24.80000000000001,88,27,2.56,VN,1699801569
165,chahar burj,34.2448,62.1917,14.700000000000045,38,0,2.29,AF,1699801569
166,villa maria,-32.4075,-63.2402,19.900000000000034,29,0,8.55,AR,1699801569
167,beloyarskiy,63.7119,66.6722,-3.329999999999984,95,100,2.68,RU,1699801569
168,cooper's town,26.8667,-77.5167,25.689999999999998,71,96,3.99,BS,1699801570
169,broken hill,-31.95,141.4333,17.79000000000002,26,22,8.21,AU,1699801352
170,san patricio,28.017,-97.5169,16.02000000000004,91,100,4.84,US,1699801570
171,wynne,35.2245,-90.7868,8.550000000000011,47,13,3.97,US,1699801570
172,placido de castro,-10.3353,-67.1856,38.110000000000014,33,27,2.41,BR,1699801570
173,belyy yar,53.6039,91.3903,-10.060000000000002,85,88,2.0,RU,1699801570
174,blackmans bay,-43.0167,147.3167,7.6299999999999955,76,88,3.35,AU,1699801570
175,pacific grove,36.6177,-121.9166,17.03000000000003,52,0,2.57,US,1699801571
176,bemidji,47.4736,-94.8803,1.7000000000000455,96,100,3.09,US,1699801484
177,la ronge,55.1001,-105.2842,-0.8599999999999568,86,100,3.6,CA,1699801571
178,san antonio de pale,-1.4014,5.6325,26.120000000000005,84,100,3.93,GQ,1699801571
179,sangin,32.0728,64.8359,17.660000000000025,26,0,1.21,AF,1699801323
180,rongelap,11.1635,166.8941,27.30000000000001,81,100,9.99,MH,1699801571
181,viriat,46.2548,5.2157,13.710000000000036,84,100,3.13,FR,1699801572
182,xiaoweizhai,26.1903,107.5125,4.6299999999999955,93,100,3.25,CN,1699801572
183,neiafu,-18.65,-173.9833,23.379999999999995,88,75,4.63,TO,1699801572
184,kas,36.2018,29.6377,19.900000000000034,84,86,2.1,TR,1699801572
185,labytnangi,66.6572,66.4183,-9.109999999999957,88,10,3.91,RU,1699801572
186,pandan,14.0453,124.1694,27.29000000000002,85,100,4.34,PH,1699801572
187,kunming,25.0389,102.7183,13.960000000000036,67,0,2.0,CN,1699801573
188,antigo,45.1402,-89.1523,5.03000000000003,75,0,5.14,US,1699801574
189,moroni,-11.7022,43.2551,27.24000000000001,82,22,1.58,KM,1699801574
190,khandyga,62.6667,135.6,-21.849999999999966,98,100,1.3,RU,1699801575
191,sisimiut,66.9395,-53.6735,-6.949999999999989,72,100,4.93,GL,1699801575
192,rondonopolis,-16.4708,-54.6356,41.79000000000002,17,10,3.85,BR,1699801434
193,badger,64.8,-147.5333,-8.069999999999993,79,100,0.0,US,1699801575
194,xiulin,29.7167,112.4,8.160000000000025,66,100,5.6,CN,1699801330
195,malvik,63.4333,10.6833,-0.22999999999996135,68,0,5.14,NO,1699801576
196,magadan,59.5667,150.8,-11.620000000000005,69,100,4.23,RU,1699801576
197,murun-kuren,49.6342,100.1625,-9.21999999999997,57,99,1.55,MN,1699801576
198,konstantinovka,49.6167,127.9833,-9.359999999999957,84,68,3.1,RU,1699801576
199,bijar,35.8668,47.6051,12.870000000000005,29,100,2.49,IR,1699801576
200,darwin,-12.4611,130.8418,27.99000000000001,70,0,2.57,AU,1699801351
201,myski,53.709,87.8014,-0.5,96,100,0.9,RU,1699801577
202,hami,42.8,93.45,4.7000000000000455,27,0,2.65,CN,1699801577
203,san luis de la loma,17.2706,-100.8939,28.200000000000045,68,3,0.89,MX,1699801577
204,antofagasta,-23.65,-70.4,18.600000000000023,64,24,4.82,CL,1699801577
205,port douglas,-16.4833,145.4667,23.189999999999998,78,32,4.58,AU,1699801547
206,vladivostok,43.1056,131.8735,-6.989999999999952,54,1,7.26,RU,1699801577
207,portland,45.5234,-122.6762,10.110000000000014,94,100,3.13,US,1699801077
208,ghazni,33.5536,68.4269,9.29000000000002,22,0,1.47,AF,1699801578
209,medeiros neto,-17.3739,-40.2206,37.700000000000045,21,2,1.68,BR,1699801578
210,greymouth,-42.4667,171.2,11.689999999999998,83,99,2.15,NZ,1699801578
211,cannonvale,-20.2833,148.7,23.660000000000025,76,5,4.95,AU,1699801578
212,saint-pierre,-21.3393,55.4781,23.82000000000005,69,100,6.69,RE,1699801578
213,anadyr,64.75,177.4833,1.2800000000000296,86,20,7.0,RU,1699801578
214,kapa'a,22.0752,-159.319,24.180000000000007,89,100,7.2,US,1699801579
215,codrington,-38.2667,141.9667,9.78000000000003,88,39,2.86,AU,1699801579
216,isangel,-19.55,169.2667,22.120000000000005,76,58,8.22,VU,1699801579
217,conception bay south,47.4999,-52.9981,2.080000000000041,90,100,6.83,CA,1699801579
218,harper,4.375,-7.7169,28.100000000000023,76,47,3.97,LR,1699801579
219,vilyuysk,63.7553,121.6247,-15.560000000000002,96,49,3.13,RU,1699801579
220,shillong,25.5689,91.8831,12.32000000000005,90,0,0.14,IN,1699801580
221,celestun,20.8667,-90.4,27.0,82,67,3.45,MX,1699801580
222,kashgar,39.4547,75.9797,8.560000000000002,31,0,1.0,CN,1699801580
223,kharp,66.8014,65.8081,-8.819999999999993,89,13,4.2,RU,1699801580
224,parham,17.0968,-61.7705,29.460000000000036,74,40,6.17,AG,1699801581
225,leh,34.1667,77.5833,2.9500000000000455,39,1,1.66,IN,1699801579
226,takedamachi,32.9667,131.4,5.980000000000018,83,10,2.52,JP,1699801581
227,el jadid,33.2549,-8.506,21.03000000000003,70,100,8.99,MA,1699801581
228,cole harbour,44.6724,-63.4751,5.400000000000034,70,7,6.69,CA,1699801581
229,petropavlovsk-kamchatsky,53.0452,158.6483,-3.079999999999984,74,100,12.52,RU,1699801581
230,naze,28.3667,129.4833,16.510000000000048,62,100,7.1,JP,1699801581
231,kidal,18.4411,1.4078,34.53000000000003,6,0,6.94,ML,1699801581
232,zagora,30.3484,-5.8365,29.170000000000016,15,10,2.55,MA,1699801581
233,goundam,16.4145,-3.6708,37.360000000000014,5,0,5.22,ML,1699801582
234,christchurch,-43.5333,172.6333,12.75,79,73,0.0,NZ,1699801530
235,avarua,-21.2078,-159.775,21.03000000000003,78,100,3.6,CK,1699801582
236,hotan,37.0997,79.9269,6.439999999999998,23,13,0.8,CN,1699801582
237,north bend,43.4065,-124.2243,11.03000000000003,100,100,5.66,US,1699801509
238,cockburn town,21.4612,-71.1419,28.29000000000002,77,5,8.45,TC,1699801582
239,la palma,33.8464,-118.0467,21.610000000000014,21,0,2.06,US,1699801583
240,nova sintra,14.8667,-24.7167,23.140000000000043,68,97,4.21,CV,1699801583
241,nizhnesortymskiy,62.4397,71.7603,-4.189999999999998,93,87,4.35,RU,1699801583
242,port elizabeth,-33.918,25.5701,20.160000000000025,58,20,10.29,ZA,1699801583
243,nadi,-17.8,177.4167,25.0,78,75,3.6,FJ,1699801583
244,duong dong,10.2167,103.9667,25.0,94,40,0.51,VN,1699801583
245,newman,37.3138,-121.0208,6.270000000000039,68,94,1.4,US,1699801584
246,itumbiara,-18.4192,-49.2153,39.58000000000004,16,46,2.72,BR,1699801479
247,wenchang,30.904,118.4887,5.990000000000009,71,65,1.76,CN,1699801584
248,bunia,1.5667,30.25,23.170000000000016,71,99,1.59,CD,1699801584
249,gaspe,48.8334,-64.4819,0.9500000000000455,86,100,3.09,CA,1699800962
250,geraldton,-28.7667,114.6,23.230000000000018,60,75,4.63,AU,1699801584
251,shingu,33.7333,135.9833,10.230000000000018,67,9,3.95,JP,1699801584
252,arraial do cabo,-22.9661,-42.0278,30.980000000000018,62,0,6.17,BR,1699801358
253,abadan,30.3392,48.3043,28.970000000000027,34,0,1.03,IR,1699801584
254,paradip garh,20.3167,86.6167,25.129999999999995,69,6,2.8,IN,1699801585
255,abnub,27.2696,31.1511,32.120000000000005,31,8,4.22,EG,1699801585
256,brisas de zicatela,15.8369,-97.0419,28.29000000000002,61,0,0.0,MX,1699801585
257,sanming,26.2486,117.6186,14.920000000000016,95,100,1.64,CN,1699801585
258,kerikeri,-35.2268,173.9474,8.470000000000027,91,5,1.33,NZ,1699801585
259,revda,56.801,59.9303,2.2700000000000387,78,100,3.69,RU,1699801585
260,oliver,49.1831,-119.5524,5.140000000000043,80,96,0.51,CA,1699801586
261,menaka,15.9182,2.4022,36.79000000000002,6,0,3.71,ML,1699801586
262,tadine,-21.55,167.8833,21.260000000000048,71,3,8.49,NC,1699801586
263,byron bay,-28.65,153.6167,19.28000000000003,84,12,7.09,AU,1699801586
264,siwa oasis,29.2041,25.5195,26.660000000000025,31,0,2.29,EG,1699801586
265,ancud,-41.8697,-73.8203,9.939999999999998,49,31,4.71,CL,1699801586
266,kasama,-10.2129,31.1808,24.700000000000045,51,100,2.31,ZM,1699801586
267,debark',13.1561,37.8981,13.5,69,96,0.41,ET,1699801586
268,yemetsk,63.4721,41.7941,-3.9899999999999523,91,66,3.27,RU,1699801587
269,idfu,24.9803,32.8747,31.910000000000025,26,100,2.48,EG,1699801587
270,dudinka,69.4058,86.1778,-0.7399999999999523,98,100,7.6,RU,1699801587
271,manokwari,-0.8667,134.0833,26.08000000000004,83,87,2.17,ID,1699801587
272,las veredas,23.1388,-109.7075,26.730000000000018,73,40,3.09,MX,1699801587
273,ormond beach,29.2858,-81.0559,22.28000000000003,95,100,5.14,US,1699801374
274,ebaye,8.7748,167.7392,27.010000000000048,89,40,5.66,MH,1699801587
275,singkil,-7.9855,111.4161,25.870000000000005,82,43,1.74,ID,1699801587
276,boali,4.8005,18.1275,27.77000000000004,75,68,2.11,CF,1699801588
277,cabedelo,-6.9811,-34.8339,31.370000000000005,57,32,6.48,BR,1699801588
278,malkapur,20.8833,76.2,24.07000000000005,35,100,2.63,IN,1699801588
279,akrehamn,59.2667,5.1833,7.78000000000003,70,0,1.03,NO,1699801588
280,tolanaro,-25.0319,46.9987,26.04000000000002,61,0,9.77,MG,1699801588
281,lamar,33.6668,-95.5836,13.689999999999998,59,0,4.12,US,1699801588
282,keelung,25.1283,121.7419,19.760000000000048,84,100,9.9,TW,1699801313
283,touros,-5.1989,-35.4608,30.30000000000001,54,2,7.64,BR,1699801588
284,ghormach,35.7306,63.7826,13.400000000000034,48,4,4.06,AF,1699801588
285,brush,40.2589,-103.6238,8.600000000000023,59,0,2.57,US,1699801589
286,macusani,-14.0833,-70.4333,10.210000000000036,61,45,2.71,PE,1699801589
287,ghat,24.9647,10.1728,26.890000000000043,16,0,3.67,LY,1699801364
288,gwadar,25.1216,62.3254,26.720000000000027,47,100,4.25,PK,1699801589
289,nuuk,64.1835,-51.7216,-3.659999999999968,63,20,1.03,GL,1699801589
290,sao felix do xingu,-6.6447,-51.995,37.72000000000003,28,26,2.37,BR,1699801589
291,taoudenni,22.6783,-3.9836,36.05000000000001,10,1,4.2,ML,1699801589
292,qui nhon,13.7667,109.2333,25.710000000000036,87,59,4.34,VN,1699801589
293,rikaze,29.25,88.8833,2.650000000000034,22,2,0.27,CN,1699801530
294,nemuro,43.3236,145.575,2.3600000000000136,63,3,4.05,JP,1699801590
295,hastings,50.8552,0.5729,10.439999999999998,82,100,4.08,GB,1699801590
296,krasnovishersk,60.4078,57.082,-0.16999999999995907,99,98,1.78,RU,1699801590
297,rudnichnyy,59.617,52.4703,-0.0999999999999659,94,100,1.99,RU,1699801590
298,rohru,31.2167,77.75,10.860000000000014,65,2,1.53,IN,1699801590
299,lautoka,-17.6167,177.4667,24.920000000000016,78,75,3.6,FJ,1699801590
300,kudahuvadhoo,2.6708,72.8944,27.170000000000016,77,60,0.71,MV,1699801591
301,san ignacio de velasco,-16.3667,-60.95,38.620000000000005,27,31,5.79,BO,1699801591
302,hermanus,-34.4187,19.2345,17.77000000000004,63,6,3.99,ZA,1699801591
303,hatod,22.8,75.7333,22.180000000000007,40,50,2.06,IN,1699801591
304,lengshuijiang,27.6881,111.4294,6.75,85,100,1.7,CN,1699801591
305,kyshtovka,56.555,76.6271,-0.37000000000000455,77,100,4.02,RU,1699801591
306,el nido,11.1858,119.3956,28.310000000000002,77,6,4.74,PH,1699801591
307,brokopondo,4.75,-55.1667,30.810000000000002,56,16,1.32,SR,1699801592
308,kargil,34.5667,76.1,1.2100000000000364,44,0,1.96,IN,1699801592
309,laascaanood,8.4774,47.3597,29.430000000000007,47,77,4.84,SO,1699801592
310,zhengjiatun,43.5064,123.5064,-10.17999999999995,89,5,2.98,CN,1699801592
311,vilyuchinsk,52.9306,158.4028,-2.259999999999991,84,88,3.6,RU,1699801592
312,brezina,33.0989,1.2608,25.879999999999995,12,21,5.97,DZ,1699801592
313,chonchi,-42.6128,-73.8092,11.180000000000007,50,65,2.79,CL,1699801434
314,waingapu,-9.6567,120.2641,27.53000000000003,81,82,2.54,ID,1699801592
315,southport,53.6478,-3.0065,7.990000000000009,87,75,9.77,GB,1699801593
316,olyokminsk,60.3736,120.4264,-9.509999999999991,90,99,3.6,RU,1699801593
317,katabu,-4.9333,122.5167,24.400000000000034,84,83,1.15,ID,1699801593
318,alvaraes,-3.2208,-64.8042,30.930000000000007,45,25,2.08,BR,1699801593
319,wanning,18.8003,110.3967,25.0,87,79,7.34,CN,1699801593
320,semporna,4.4818,118.6112,26.870000000000005,84,6,2.65,MY,1699801593
321,boac,13.4463,121.84,26.950000000000045,85,22,5.02,PH,1699801593
322,laguna,38.421,-121.4238,15.560000000000002,89,0,0.0,US,1699801593
323,smithers,54.7804,-127.1743,-3.819999999999993,100,0,1.54,CA,1699801594
324,cedeira,43.6797,-8.0209,19.99000000000001,70,100,8.68,ES,1699801594
325,lourdes,43.1,-0.05,18.510000000000048,63,100,4.12,FR,1699801594
326,qamdo,31.1667,97.2333,-5.25,51,100,0.98,CN,1699801594
327,puerto madryn,-42.7692,-65.0385,14.180000000000007,24,5,11.11,AR,1699801594
328,ad darb,17.7229,42.2526,29.850000000000023,64,27,3.41,SA,1699801594
329,ariquemes,-9.9133,-63.0408,36.120000000000005,39,100,2.76,BR,1699801334
330,kristiansund,63.1115,7.732,3.0300000000000296,69,0,1.54,NO,1699801594
331,urengoy,65.9667,78.3667,-3.069999999999993,96,100,4.15,RU,1699801594
332,santiago de cao,-7.9589,-79.2392,20.07000000000005,83,100,5.14,PE,1699801595
333,sitka,57.0531,-135.33,2.9399999999999977,87,0,2.57,US,1699801595
334,sarmiento,-45.5882,-69.07,11.740000000000009,21,13,8.8,AR,1699801595
335,whitehorse,60.7161,-135.0538,-1.5699999999999932,92,100,1.54,CA,1699801595
336,keflavik,64.0049,-22.5624,5.240000000000009,75,75,8.23,IS,1699801595
337,cabo san lucas,22.8909,-109.9124,27.090000000000032,69,20,3.09,MX,1699801536
338,dauphin,51.1494,-100.0502,3.080000000000041,75,40,8.23,CA,1699801595
339,desaguadero,-16.5656,-69.0417,13.54000000000002,51,50,3.93,PE,1699801596
340,xilin hot,43.9667,116.0333,-12.899999999999977,90,5,3.07,CN,1699801597
341,niafunke,15.9322,-3.9906,37.58000000000004,5,34,5.38,ML,1699801597
342,el calafate,-50.3408,-72.2768,6.2000000000000455,56,4,3.5,AR,1699801597
343,suntar,62.1444,117.6319,-15.109999999999957,98,98,1.52,RU,1699801597
344,tual,-5.6667,132.75,27.80000000000001,79,20,5.8,ID,1699801597
345,makurdi,7.7411,8.5121,35.120000000000005,38,85,0.98,NG,1699801598
346,morinville,53.8001,-113.652,1.8799999999999955,60,75,3.6,CA,1699801598
347,heroica guaymas,27.9333,-110.9,16.650000000000034,55,0,3.09,MX,1699801550
348,ventanas,-1.45,-79.4667,27.370000000000005,72,90,1.99,EC,1699801598
349,kapuskasing,49.4169,-82.4331,-0.9499999999999886,80,40,6.17,CA,1699801508
350,hengshui,37.7322,115.7011,1.0400000000000205,36,0,1.96,CN,1699801598
351,puerto madero,14.7208,-92.4215,30.110000000000014,79,20,0.0,MX,1699801599
352,santarem,-2.4431,-54.7083,32.07000000000005,55,20,7.2,BR,1699801599
353,alaghsas,17.0187,8.0168,34.94,8,0,5.66,NE,1699801599
354,kolondieba,11.0882,-6.8926,36.52000000000004,26,46,2.79,ML,1699801599
355,lere,10.387,8.5726,33.27000000000004,17,4,3.16,NG,1699801599
356,guerrero negro,27.9769,-114.0611,17.58000000000004,44,0,0.28,MX,1699801599
357,fort morgan,40.2503,-103.8,7.680000000000007,59,0,2.57,US,1699801600
358,pokhara,28.2333,83.9833,16.04000000000002,67,1,2.29,NP,1699801600
359,selizharovo,56.8519,33.4487,1.9500000000000455,96,100,5.36,RU,1699801600
360,horta,38.5333,-28.6333,21.120000000000005,89,20,10.8,PT,1699801600
361,gadzhiyevo,69.2551,33.3362,-8.539999999999964,99,90,4.2,RU,1699801600
362,tadmur,34.5608,38.2805,19.450000000000045,59,100,1.67,SY,1699801601
363,bastia,42.6667,9.3333,19.629999999999995,62,0,12.07,FR,1699801601
364,ha'il,27.5219,41.6907,26.010000000000048,27,0,2.06,SA,1699801601
365,mount pearl,47.5166,-52.7813,1.75,90,75,6.69,CA,1699801601
366,uvalde,29.3669,-99.767,14.520000000000039,83,100,2.06,US,1699801601
367,mcdonough,40.4667,-90.6668,10.0,60,0,6.17,US,1699801601
368,katsuren-haebaru,26.3369,127.8719,21.010000000000048,77,100,5.14,JP,1699801602
369,uturoa,-16.7333,-151.4333,26.910000000000025,81,66,3.85,PF,1699801602
370,merizo village,13.2658,144.6691,28.310000000000002,90,41,7.24,GU,1699801602
371,nakamura,32.9833,132.9333,9.5,61,29,4.36,JP,1699801602
372,aasiaat,68.7098,-52.8699,-11.899999999999977,81,100,3.3,GL,1699801602
373,nar'yan-mar,67.6713,53.087,-8.269999999999982,94,39,2.68,RU,1699801602
374,konarka,19.9,86.1167,25.220000000000027,71,9,3.1,IN,1699801602
375,roma,43.2128,-75.4557,2.5400000000000205,66,100,0.0,US,1699801372
376,aldama,22.9167,-98.0667,19.090000000000032,78,99,2.83,MX,1699801602
377,labuan,5.2767,115.2417,28.29000000000002,74,64,2.06,MY,1699801603
378,achikulak,44.5517,44.8378,14.620000000000005,63,7,3.63,RU,1699801603
379,hirara,24.8,125.2833,23.510000000000048,70,100,12.97,JP,1699801603
380,oak island,33.9166,-78.1611,11.189999999999998,95,100,4.12,US,1699801603
381,amarante do maranhao,-5.5667,-46.7422,37.26000000000005,29,26,1.92,BR,1699801603
382,bundaberg,-24.85,152.35,17.900000000000034,85,29,0.45,AU,1699801603
383,zalingei,12.9096,23.4741,32.18000000000001,25,92,1.09,SD,1699801603
384,savanna-la-mar,18.219,-78.1332,29.400000000000034,71,22,3.44,JM,1699801603
385,piacabucu,-10.4056,-36.4344,29.410000000000025,54,48,6.16,BR,1699801603
386,plouzane,48.3833,-4.6167,14.180000000000007,88,100,7.72,FR,1699801603
387,pierre,44.3683,-100.351,1.5100000000000477,80,0,4.63,US,1699801604
388,arno,60.1167,18.6333,4.8799999999999955,93,100,4.63,SE,1699801604
389,yeosu,34.7546,127.6599,4.770000000000039,67,1,5.61,KR,1699801604
390,constitucion,-35.3333,-72.4167,13.550000000000011,47,0,6.21,CL,1699801604
391,yemva,62.59,50.8594,-1.259999999999991,94,100,2.5,RU,1699801604
392,lagoa formosa,-18.7786,-46.4075,36.879999999999995,17,12,1.53,BR,1699801604
393,arawa,-6.2132,155.5367,24.55000000000001,90,99,2.7,PG,1699801604
394,sidney,-33.8679,151.2073,19.840000000000032,75,100,8.75,AU,1699801425
395,sinabang,2.4803,96.3801,26.54000000000002,84,97,2.65,ID,1699801604
396,michigan city,41.7075,-86.895,8.25,69,44,6.91,US,1699801604
397,altamira,-3.2033,-52.2064,35.79000000000002,38,36,2.71,BR,1699801605
398,kataba,13.9833,44.3833,19.82000000000005,53,70,2.53,YE,1699801605
399,whangarei,-35.7317,174.3239,7.460000000000036,96,13,1.2,NZ,1699801605
400,moanda,-1.5575,13.2178,28.340000000000032,65,82,0.33,GA,1699801605
401,kununurra,-15.7667,128.7333,26.99000000000001,89,67,3.09,AU,1699801605
402,cukai,4.25,103.4167,25.970000000000027,88,47,1.21,MY,1699801401
403,kone,-21.0595,164.8658,18.83000000000004,79,12,1.99,NC,1699801605
404,lata,40.1629,-8.3327,18.840000000000032,89,95,2.72,PT,1699801605
405,al mawsil al jadidah,36.3346,43.0978,23.80000000000001,30,81,2.46,IQ,1699801605
406,sambava,-14.2667,50.1667,25.560000000000002,80,100,5.75,MG,1699801605
407,mount isa,-20.7333,139.5,21.870000000000005,78,51,0.0,AU,1699801606
408,borujerd,33.8973,48.7516,16.05000000000001,24,100,1.55,IR,1699801606
409,gaiman,-43.2897,-65.4929,14.710000000000036,21,6,11.06,AR,1699801606
410,bay roberts,47.5999,-53.2648,2.410000000000025,81,100,2.68,CA,1699801606
411,orda,57.1951,56.9091,0.7700000000000387,89,98,3.46,RU,1699801606
412,yonggwang-up,40.0183,127.4547,-0.6899999999999977,48,0,2.06,KP,1699801606
413,calabar,4.9517,8.322,29.30000000000001,73,64,2.43,NG,1699801606
414,mugia,43.1041,-9.2179,19.53000000000003,93,99,10.08,ES,1699801606
415,kodiak,57.79,-152.4072,0.7700000000000387,70,0,4.12,US,1699801321
416,kailua-kona,19.6406,-155.9956,22.5,92,1,1.34,US,1699801425
417,plettenberg bay,-34.0527,23.3716,17.689999999999998,60,9,3.46,ZA,1699801607
418,xinzhi,36.4989,111.7047,5.28000000000003,33,100,0.87,CN,1699801607
419,san-pedro,4.7485,-6.6363,28.74000000000001,73,40,3.98,CI,1699801607
420,al bawiti,28.3492,28.8659,26.930000000000007,36,5,3.66,EG,1699801607
421,vadso,70.0744,29.7487,-2.909999999999968,86,20,5.66,NO,1699801607
422,tvoroyri,61.5556,-6.8111,7.1299999999999955,71,100,10.16,FO,1699801607
423,island harbour,50.724,-1.2758,12.480000000000018,91,100,4.02,GB,1699801607
424,zelenoborskiy,66.845,32.3622,-9.629999999999995,96,57,1.65,RU,1699801607
425,lovington,32.944,-103.3485,7.470000000000027,82,1,1.17,US,1699801607
426,port hedland,-20.3167,118.5667,24.03000000000003,78,3,4.12,AU,1699801358
427,maragogi,-9.0122,-35.2225,28.730000000000018,56,36,5.73,BR,1699801608
428,at taj,24.2049,23.2857,28.33000000000004,20,1,3.52,LY,1699801608
429,okha,53.5739,142.9478,-4.560000000000002,78,100,7.15,RU,1699801608
430,filey,54.21,-0.2892,8.350000000000023,85,82,1.34,GB,1699801608
431,edson,53.5835,-116.4356,-4.919999999999959,80,40,1.03,CA,1699801367
432,muscat,23.6139,58.5922,27.010000000000048,47,98,2.01,OM,1699801608
433,santa helena de goias,-17.8136,-50.5969,38.53000000000003,18,72,2.96,BR,1699801608
434,puerto santa,-8.9906,-78.6456,20.55000000000001,82,72,2.87,PE,1699801608
435,bairnsdale,-37.8333,147.6167,11.140000000000043,82,51,2.46,AU,1699801609
436,kerema,-7.9631,145.7785,23.75,87,48,1.55,PG,1699801609
437,dubove,48.1721,23.8895,5.110000000000014,95,100,2.04,UA,1699801609
438,thinadhoo,0.5333,72.9333,27.160000000000025,81,46,2.69,MV,1699801609
439,weno,7.4515,151.8468,26.970000000000027,94,100,1.54,FM,1699801609
440,antsiranana,-12.2787,49.2917,26.310000000000002,79,99,7.39,MG,1699801610
441,muravlenko,63.7898,74.523,-4.079999999999984,96,100,4.16,RU,1699801610
442,buala,-8.145,159.5921,26.430000000000007,87,100,2.99,SB,1699801610
443,acapulco de juarez,16.8634,-99.8901,28.900000000000034,70,0,3.6,MX,1699801610
444,altai,46.3722,96.2583,-10.859999999999957,65,5,0.9,MN,1699801610
445,nantucket,41.2835,-70.0995,7.080000000000041,62,75,4.12,US,1699801610
446,agaro,7.85,36.65,19.0,87,25,0.43,ET,1699801610
447,nagqu,31.5,92.0,-8.560000000000002,40,0,1.24,CN,1699801529
448,gulu,2.7746,32.299,25.610000000000014,60,64,1.24,UG,1699801610
449,tinogasta,-28.0632,-67.5649,31.620000000000005,15,0,5.08,AR,1699801610
450,matay,28.419,30.7792,29.220000000000027,37,7,3.8,EG,1699801611
451,kirkwall,58.9848,-2.9587,7.03000000000003,93,75,1.54,GB,1699801611
452,phang nga,8.4509,98.5298,26.02000000000004,94,99,1.41,TH,1699801611
453,crane,31.3974,-102.3501,13.140000000000043,81,100,3.16,US,1699801611
454,riscani,47.9572,27.5539,8.260000000000048,68,100,7.57,MD,1699801611
455,bandarbeyla,9.4942,50.8122,27.420000000000016,81,53,7.4,SO,1699801611
456,kavieng,-2.5744,150.7967,27.100000000000023,74,98,2.36,PG,1699801611
457,tabou,4.423,-7.3528,28.170000000000016,75,25,4.04,CI,1699801611
458,haiku-pauwela,20.9219,-156.3051,23.910000000000025,72,0,6.69,US,1699801612
459,dhandhuka,22.3667,71.9833,28.140000000000043,21,100,3.22,IN,1699801612
460,viedma,-40.8135,-62.9967,15.150000000000034,24,1,10.45,AR,1699801612
461,beyneu,45.3167,55.2,7.9500000000000455,52,22,5.2,KZ,1699801612
462,uliastay,47.7417,96.8444,-13.42999999999995,60,13,3.06,MN,1699801612
463,concepcion,-36.827,-73.0498,11.890000000000043,50,0,6.17,CL,1699801504
464,surgut,61.25,73.4167,0.10000000000002274,100,100,3.13,RU,1699801467
465,boke,10.9409,-14.2967,34.420000000000016,39,31,2.02,GN,1699801612
466,lorengau,-2.0226,147.2712,26.660000000000025,79,100,1.95,PG,1699801612
467,chemolgan,43.1897,76.5292,3.8100000000000023,96,96,2.39,KZ,1699801613
468,prado,-17.3411,-39.2208,30.0,56,20,8.03,BR,1699801613
469,al fashn,28.8243,30.8995,28.58000000000004,40,12,3.7,EG,1699801613
470,aljustrel,37.8776,-8.1652,22.140000000000043,59,46,2.0,PT,1699801613
471,coelho neto,-4.2567,-43.0128,39.25,23,5,1.41,BR,1699801613
472,suva,-18.1416,178.4415,22.710000000000036,100,75,2.06,FJ,1699801613
473,naklo nad notecia,53.1421,17.6018,7.470000000000027,82,74,2.69,PL,1699801613
474,la ligua,-32.4524,-71.2311,14.600000000000023,73,93,2.62,CL,1699801479
475,ar ruways,24.1103,52.7306,26.99000000000001,65,2,3.89,AE,1699801613
476,mazagao,-0.115,-51.2894,35.03000000000003,42,24,3.28,BR,1699801614
477,dowlatabad,32.7998,51.6955,15.82000000000005,27,0,2.06,IR,1699801614
478,tangalle,6.024,80.7911,25.090000000000032,84,100,1.5,LK,1699801614
479,macherla,16.4833,79.4333,24.49000000000001,72,100,2.14,IN,1699801579
480,hasaki,35.7333,140.8333,10.160000000000025,84,93,10.85,JP,1699801614
481,ayabaca,-4.6398,-79.7149,13.550000000000011,43,4,2.14,PE,1699801614
482,zaragoza,41.6561,-0.8773,22.470000000000027,47,0,2.24,ES,1699801614
483,praya,14.9215,-23.5087,30.30000000000001,54,99,6.17,CV,1699801614
484,buarcos,40.166,-8.8768,22.04000000000002,94,65,5.78,PT,1699801614
485,kotli,33.5167,73.9167,16.010000000000048,52,0,1.34,PK,1699801614
486,puerto deseado,-47.7503,-65.8938,8.160000000000025,49,100,16.0,AR,1699801615
487,kolonia town,6.964,158.206,28.439999999999998,73,96,3.91,FM,1699801615
488,tazacorte,28.629,-17.9293,24.53000000000003,83,75,3.09,ES,1699801615
489,la libertad,-2.2333,-80.9,25.810000000000002,78,100,4.63,EC,1699801615
490,capitao poco,-1.7464,-47.0594,36.950000000000045,30,44,3.12,BR,1699801615
491,greenville,35.6127,-77.3663,10.090000000000032,96,100,2.57,US,1699801615
492,thunder bay,48.4001,-89.3168,3.990000000000009,93,100,2.57,CA,1699801449
493,la gi,10.6667,107.7833,26.25,89,21,5.78,VN,1699801615
494,kabansk,52.0486,106.6528,-9.46999999999997,82,5,2.43,RU,1699801615
495,piat,17.7905,121.478,22.379999999999995,91,52,1.77,PH,1699801615
496,luis correia,-2.8792,-41.6669,33.0,49,20,7.72,BR,1699801615
497,auki,-8.7676,160.7034,25.04000000000002,89,96,3.59,SB,1699801615
498,astara,38.5,48.6667,10.390000000000043,62,57,1.82,AZ,1699801616
499,lillehammer,61.1146,10.4674,-9.329999999999984,97,37,1.58,NO,1699801616
500,barabai,-2.5833,115.3833,24.510000000000048,93,14,0.56,ID,1699801616
501,hanjiashu,39.1875,117.0731,0.9800000000000182,36,0,2.55,CN,1699801616
502,galliano,29.4422,-90.2992,20.0,88,100,3.09,US,1699801616
503,uyuni,-20.4597,-66.825,15.120000000000005,17,87,4.05,BO,1699801616
504,moa,20.6569,-74.9403,28.220000000000027,79,62,7.07,CU,1699801434
505,sandnessjoen,66.0217,12.6316,2.0600000000000023,35,0,3.6,NO,1699801616
506,casper,42.8666,-106.3131,6.510000000000048,40,0,6.69,US,1699801616
507,la cruz,23.9167,-106.9,23.900000000000034,80,51,1.33,MX,1699801616
508,eyl,7.9803,49.8164,27.910000000000025,78,30,8.21,SO,1699801617
509,huarmey,-10.0681,-78.1522,22.140000000000043,74,46,3.91,PE,1699801617
510,manakara,-22.1333,48.0167,23.29000000000002,66,1,3.9,MG,1699801617
511,dunedin,-45.8742,170.5036,12.520000000000039,70,78,3.63,NZ,1699801384
512,prince george,53.9166,-122.753,-1.3199999999999932,92,95,2.85,CA,1699801617
513,rio grande,-32.035,-52.0986,19.060000000000002,86,100,0.12,BR,1699801617
514,ola,59.5833,151.2833,-10.810000000000002,71,100,4.96,RU,1699801617
515,gazojak,41.1875,61.4036,10.07000000000005,38,13,4.03,TM,1699801617
516,quellon,-43.1167,-73.6167,9.010000000000048,64,47,2.97,CL,1699801372
517,el sauzal de rodriguez,31.9,-116.6833,17.370000000000005,31,2,3.21,MX,1699801617
518,remire-montjoly,4.9167,-52.2667,29.420000000000016,70,56,4.18,GF,1699801618
519,princesa isabel,-7.7367,-37.9933,33.30000000000001,19,6,3.26,BR,1699801618
520,mata-utu,-13.2816,-176.1745,28.03000000000003,79,69,5.73,WF,1699801618
521,richards bay,-28.783,32.0377,19.53000000000003,82,100,6.14,ZA,1699801618
522,yuzhno-kurilsk,44.0306,145.8556,2.430000000000007,80,62,4.16,RU,1699801618
523,fisterra,42.9049,-9.2629,19.450000000000045,94,100,9.52,ES,1699801618
524,tibati,6.4667,12.6333,28.02000000000004,53,59,0.34,CM,1699801618
525,stephenville,32.2207,-98.2023,12.439999999999998,90,0,0.0,US,1699801582
526,loncoche,-39.3667,-72.6333,12.660000000000025,36,49,2.36,CL,1699801618
527,vanimo,-2.6741,141.3028,25.57000000000005,90,99,2.85,PG,1699801619
528,hammerfest,70.6634,23.6821,-2.75,68,0,1.03,NO,1699801619
529,amuntai,-2.4177,115.2494,24.470000000000027,93,35,0.25,ID,1699801619
530,andergrove,-21.0833,149.1833,20.910000000000025,74,31,5.03,AU,1699801619
531,savonlinna,61.8699,28.88,0.03000000000002956,93,100,6.69,FI,1699801619
532,la foa,-21.7108,165.8276,19.82000000000005,72,0,2.41,NC,1699801619
533,debila,33.5167,6.95,24.930000000000007,29,3,3.1,DZ,1699801619
534,charters towers,-20.1,146.2667,19.58000000000004,79,0,3.36,AU,1699801621
535,shiguai,40.7058,110.2856,-5.4599999999999795,37,87,1.64,CN,1699801548
536,altay,47.8667,88.1167,-0.47999999999996135,72,100,2.02,CN,1699801621
537,al hufuf,25.3646,49.5653,29.189999999999998,30,0,3.6,SA,1699801621
538,pariaman,-0.619,100.12,27.03000000000003,88,100,1.75,ID,1699801621
539,guadalupe,25.6833,-100.25,21.890000000000043,57,100,1.53,MX,1699801413
540,lerwick,60.1545,-1.1494,8.0,75,100,4.33,GB,1699801622
541,saldanha,-33.0117,17.9442,16.810000000000002,68,0,9.63,ZA,1699801622
542,ha tinh,18.3333,105.9,23.980000000000018,92,11,1.24,VN,1699801622
543,mangrol,21.1167,70.1167,28.400000000000034,30,91,3.58,IN,1699801623
544,bystrice nad pernstejnem,49.5229,16.2615,6.9500000000000455,66,89,1.81,CZ,1699801623
545,nicoya,10.1483,-85.452,28.140000000000043,77,70,1.49,CR,1699801623
546,callao,-12.0667,-77.15,25.400000000000034,77,100,2.57,PE,1699801461
547,bamboo flat,11.7,92.7167,28.390000000000043,75,67,5.49,IN,1699801624
548,sinop,41.7711,34.8709,12.240000000000009,90,100,0.62,TR,1699801624
549,sira,13.7453,76.9092,22.170000000000016,68,100,2.97,IN,1699801624
550,butte,39.6499,-121.5677,14.439999999999998,71,0,0.0,US,1699801624
551,kurmuk,10.55,34.2833,29.140000000000043,55,88,1.15,SD,1699801624
552,turpan,42.9333,89.1667,9.550000000000011,26,100,0.08,CN,1699801625
553,rumonge,-3.9736,29.4386,25.24000000000001,81,68,0.86,BI,1699801625
554,severo-yeniseyskiy,60.3725,93.0408,-4.1200000000000045,98,100,0.89,RU,1699801625
555,paragominas,-2.9667,-47.4833,36.73000000000002,31,3,2.3,BR,1699801625
556,fada,9.5667,8.3,33.44,19,9,2.43,NG,1699801625
557,brasileia,-11.0161,-68.7481,34.25,55,36,4.12,BR,1699801451
558,coahuayana de hidalgo,18.7,-103.6583,27.879999999999995,73,9,1.09,MX,1699801625
559,linxi,39.7,118.4333,-1.3899999999999864,36,0,0.75,CN,1699801626
560,shantobe,52.4581,68.1839,3.75,92,100,4.29,KZ,1699801626
561,mejit,10.2753,170.8646,27.680000000000007,80,79,10.74,MH,1699801626
562,poronaysk,49.2167,143.1167,-6.6200000000000045,75,18,4.59,RU,1699801626
563,mengyin,35.7069,117.9264,-0.19999999999998863,38,0,1.99,CN,1699801543
564,kupjansk,49.7209,37.5998,10.400000000000034,65,47,10.96,UA,1699801626
565,alexandria,31.2156,29.9553,23.950000000000045,72,0,4.71,EG,1699801626
566,labrador city,52.9463,-66.9114,-6.739999999999952,81,98,5.82,CA,1699801627
567,ketchikan,55.3422,-131.6461,5.990000000000009,100,20,0.0,US,1699801627
568,lanzhou,36.0564,103.7922,1.9399999999999977,61,1,0.16,CN,1699801627
569,yanbu,24.0891,38.0637,31.02000000000004,62,0,2.06,SA,1699801627
570,constantia,44.1833,28.65,12.610000000000014,35,1,9.36,RO,1699801627
571,birao,10.2849,22.7882,29.439999999999998,49,95,2.42,CF,1699801627
572,wynyard,-41.0,145.7167,7.510000000000048,75,100,3.36,AU,1699801627
573,bouarfa,32.53,-1.95,23.83000000000004,19,79,1.16,MA,1699801628
574,nouadhibou,20.931,-17.0347,27.99000000000001,36,7,6.17,MR,1699801628
575,ishim,56.1128,69.4902,3.3500000000000227,82,100,3.58,RU,1699801628
576,talakan,50.3167,130.3667,-14.060000000000002,99,75,1.04,RU,1699801628
577,hilo,19.7297,-155.09,22.379999999999995,88,0,4.12,US,1699801621
578,flin flon,54.7682,-101.865,-0.9799999999999613,95,100,1.44,CA,1699801629
579,el granada,37.5027,-122.4694,14.990000000000009,82,40,2.57,US,1699801629
580,mareeba,-17.0,145.4333,20.400000000000034,87,15,1.08,AU,1699801629
