City_ID,City,Lat,Lng,Max Temp,Humidity,Cloudiness,Wind Speed,Country,Date
0,ushuaia,-54.8,-68.3,6.810000000000002,76,75,7.72,AR,1699711368
1,avarua,-21.2078,-159.775,24.03000000000003,88,100,0.51,CK,1699711368
2,grytviken,-54.2811,-36.5092,4.220000000000027,85,30,1.19,GS,1699711369
3,at taj,24.2049,23.2857,29.420000000000016,22,100,1.95,LY,1699711370
4,anadyr,64.75,177.4833,-15.71999999999997,78,20,5.0,RU,1699711370
5,yellowknife,62.456,-114.3525,-1.9899999999999523,100,20,3.09,CA,1699711147
6,hithadhoo,-0.6,73.0833,27.33000000000004,83,32,5.77,MV,1699711370
7,buta,2.7858,24.73,24.340000000000032,83,97,0.76,CD,1699711370
8,shanhecun,44.7,127.2,-18.039999999999964,100,58,2.17,CN,1699711370
9,ribeira grande,38.5167,-28.7,21.220000000000027,83,20,7.15,PT,1699711370
10,manaure,11.7751,-72.4445,29.810000000000002,72,100,10.77,CO,1699711371
11,bethel,41.3712,-73.414,9.200000000000045,70,4,0.89,US,1699711371
12,sandnessjoen,66.0217,12.6316,3.0600000000000023,35,0,4.12,NO,1699711371
13,christchurch,-43.5333,172.6333,12.730000000000018,87,9,3.09,NZ,1699711326
14,pangody,65.85,74.4859,-3.1200000000000045,97,100,4.84,RU,1699711371
15,longyearbyen,78.2186,15.6401,-8.089999999999975,73,75,4.63,SJ,1699711371
16,port lincoln,-34.7333,135.8667,13.400000000000034,71,97,4.96,AU,1699711371
17,thompson,55.7435,-97.8558,-1.9099999999999682,86,100,4.12,CA,1699711247
18,wailua homesteads,22.0669,-159.378,23.24000000000001,90,39,3.13,US,1699711371
19,bardai,11.65,7.2333,34.650000000000034,13,74,3.15,NG,1699711371
20,atafu village,-8.5421,-172.5159,28.680000000000007,75,23,4.53,TK,1699711372
21,queenstown,-31.8976,26.8753,32.77000000000004,19,64,6.51,ZA,1699711228
22,yeniseysk,58.4497,92.1703,-8.359999999999957,73,100,2.24,RU,1699711372
23,ormara,25.2088,64.6357,27.100000000000023,60,0,2.73,PK,1699711372
24,ruidoso,33.3317,-105.673,2.7600000000000477,100,0,2.57,US,1699711372
25,uturoa,-16.7333,-151.4333,26.950000000000045,80,100,4.09,PF,1699711372
26,adamstown,-25.066,-130.1015,22.430000000000007,83,44,4.74,PN,1699711372
27,indianola,41.3581,-93.5574,2.7100000000000364,79,90,2.24,US,1699711321
28,edinburgh of the seven seas,-37.0676,-12.3116,15.740000000000009,85,100,13.73,SH,1699711372
29,tiksi,71.6872,128.8694,-12.560000000000002,88,100,7.89,RU,1699711372
30,rio grande,-32.035,-52.0986,21.060000000000002,98,100,3.43,BR,1699711373
31,puerto natales,-51.7236,-72.4875,6.010000000000048,63,100,4.28,CL,1699711373
32,keflavik,64.0049,-22.5624,4.240000000000009,100,100,5.66,IS,1699711373
33,qaqortoq,60.7167,-46.0333,-2.509999999999991,67,49,3.88,GL,1699711373
34,chonchi,-42.6128,-73.8092,7.840000000000032,85,96,4.31,CL,1699711354
35,faya-largeau,17.9257,19.1043,35.94,14,0,3.09,TD,1699711373
36,maintirano,-18.0667,44.0167,27.510000000000048,68,0,7.34,MG,1699711373
37,mirnyy,62.5353,113.9611,-8.199999999999989,57,100,4.92,RU,1699711373
38,port-aux-francais,-49.35,70.2167,3.2200000000000273,62,19,5.72,TF,1699711373
39,codrington,-38.2667,141.9667,9.050000000000011,86,0,2.79,AU,1699711374
40,saint-philippe,-21.3585,55.7679,25.77000000000004,87,83,4.71,RE,1699711374
41,waitangi,-43.9535,-176.5597,11.160000000000025,82,32,7.07,NZ,1699711374
42,phan thiet,10.9333,108.1,26.24000000000001,86,62,4.52,VN,1699711374
43,svetlyy,54.675,20.1347,8.03000000000003,85,100,1.21,RU,1699711374
44,cidreira,-30.1811,-50.2056,27.420000000000016,69,95,1.7,BR,1699711374
45,klyuchi,52.2667,79.1667,4.740000000000009,76,99,3.55,RU,1699711374
46,elverum,60.8819,11.5623,-0.5799999999999841,97,100,3.02,NO,1699711374
47,badger,64.8,-147.5333,-9.049999999999955,92,100,0.0,US,1699711254
48,invercargill,-46.4,168.35,11.110000000000014,67,53,4.53,NZ,1699711374
49,punta arenas,-53.15,-70.9167,5.6200000000000045,59,100,8.42,CL,1699711375
50,la ronge,55.1001,-105.2842,-2.859999999999957,86,75,5.66,CA,1699711375
51,moche,-8.1711,-79.0092,19.100000000000023,88,75,4.12,PE,1699711289
52,blackmans bay,-43.0167,147.3167,8.07000000000005,85,51,2.26,AU,1699711375
53,puerto deseado,-47.7503,-65.8938,18.29000000000002,30,98,8.3,AR,1699711375
54,aasiaat,68.7098,-52.8699,-13.639999999999986,83,100,4.18,GL,1699711375
55,labrador city,52.9463,-66.9114,-8.049999999999955,86,100,1.03,CA,1699711211
56,genhe,50.7833,121.5167,-18.919999999999987,98,12,1.07,CN,1699711375
57,san ignacio de velasco,-16.3667,-60.95,36.98000000000002,31,2,5.85,BO,1699711375
58,vilyuchinsk,52.9306,158.4028,1.150000000000034,95,100,2.98,RU,1699711375
59,margaret river,-33.95,115.0667,14.129999999999995,61,56,7.36,AU,1699711376
60,mweka,-4.85,21.5667,25.400000000000034,76,100,0.81,CD,1699711376
61,paranaiba,-19.6772,-51.1908,38.710000000000036,14,100,4.43,BR,1699711221
62,dimbokro,6.6451,-4.7048,30.629999999999995,65,81,0.76,CI,1699711376
63,forster,-32.1667,152.5167,19.100000000000023,88,3,5.33,AU,1699711376
64,lihue,21.9789,-159.3672,23.58000000000004,86,44,5.16,US,1699711376
65,ploneour-lanvern,47.9,-4.2833,11.160000000000025,93,100,3.09,FR,1699711376
66,albany,42.6001,-73.9662,5.8700000000000045,73,7,1.79,US,1699711105
67,quellon,-43.1167,-73.6167,7.830000000000041,76,100,6.41,CL,1699711376
68,nandurbar,21.3667,74.25,29.05000000000001,35,82,2.58,IN,1699711376
69,mazatlan,23.2167,-106.4167,24.950000000000045,84,91,0.89,MX,1699711269
70,margate,51.3813,1.3862,11.610000000000014,75,11,2.24,GB,1699711377
71,alice springs,-23.7,133.8833,28.75,42,19,3.6,AU,1699711377
72,chui,-33.6971,-53.4616,23.32000000000005,86,95,2.94,UY,1699711377
73,san patricio,28.017,-97.5169,15.470000000000027,84,100,4.73,US,1699711377
74,temizhbekskaya,45.4456,40.845,12.240000000000009,47,100,5.68,RU,1699711377
75,isafjordur,66.0755,-23.124,0.020000000000038654,80,40,1.54,IS,1699711377
76,myitkyina,25.3833,97.4,19.420000000000016,71,0,1.08,MM,1699711377
77,marquette,46.5333,-87.6335,0.4300000000000068,95,100,0.45,US,1699711377
78,wuhai,39.6647,106.8122,-4.689999999999998,19,0,1.68,CN,1699711377
79,karratha,-20.7377,116.8463,25.620000000000005,63,0,8.43,AU,1699711378
80,talnakh,69.4865,88.3972,-11.509999999999991,96,100,2.15,RU,1699711378
81,west island,-12.1568,96.8225,26.99000000000001,78,40,6.69,CC,1699711378
82,akoupe,6.39,-3.9003,27.610000000000014,88,85,1.47,CI,1699711378
83,ancud,-41.8697,-73.8203,7.939999999999998,70,90,8.54,CL,1699711378
84,crane,31.3974,-102.3501,10.020000000000039,58,100,2.09,US,1699711378
85,bilibino,68.0546,166.4372,-30.44999999999999,100,91,1.24,RU,1699711378
86,happy valley-goose bay,53.3168,-60.3315,-3.829999999999984,80,100,4.12,CA,1699711378
87,tarsus,36.9188,34.8784,27.210000000000036,49,0,1.51,TR,1699711378
88,iqaluit,63.7506,-68.5145,-5.149999999999977,79,100,6.71,CA,1699711379
89,whitehorse,60.7161,-135.0538,-1.6599999999999682,100,75,0.0,CA,1699711299
90,kuusamo,65.9667,29.1833,-6.979999999999961,93,100,2.57,FI,1699711379
91,qamdo,31.1667,97.2333,-0.7799999999999727,46,74,0.19,CN,1699711379
92,ilulissat,69.2167,-51.1,-7.989999999999952,53,40,4.12,GL,1699711379
93,college,64.8569,-147.8028,-14.289999999999964,98,82,0.55,US,1699711379
94,ulsteinvik,62.3432,5.8487,6.710000000000036,69,35,2.47,NO,1699711379
95,hirara,24.8,125.2833,23.150000000000034,94,75,7.72,JP,1699711379
96,melfort,52.8667,-104.6177,-3.92999999999995,80,5,8.23,CA,1699711379
97,the dalles,45.5946,-121.1787,12.370000000000005,76,75,2.57,US,1699711157
98,kolonia,50.9333,6.95,10.590000000000032,78,20,8.23,DE,1699711247
99,nova sintra,14.8667,-24.7167,22.450000000000045,70,92,4.13,CV,1699711380
100,port mathurin,-19.6833,63.4167,25.53000000000003,79,26,4.47,MU,1699711380
101,papatowai,-46.5619,169.4708,10.210000000000036,68,100,3.08,NZ,1699711380
102,acarau,-2.8856,-40.12,27.220000000000027,73,5,10.49,BR,1699711271
103,ajdabiya,30.7554,20.2263,27.370000000000005,29,11,3.66,LY,1699711380
104,constantia,44.1833,28.65,14.379999999999995,61,100,7.11,RO,1699711380
105,hermanus,-34.4187,19.2345,18.600000000000023,69,0,7.48,ZA,1699711380
106,tambacounda,13.7539,-13.7586,37.03000000000003,22,8,3.09,SN,1699711380
107,puerto ayora,-0.7393,-90.3518,25.860000000000014,86,78,3.13,EC,1699711380
108,xinzhou,38.4092,112.7333,-1.349999999999966,26,0,3.71,CN,1699711380
109,plettenberg bay,-34.0527,23.3716,19.58000000000004,67,33,5.63,ZA,1699711381
110,lospalos,-8.5186,127.0025,22.180000000000007,89,80,0.91,TL,1699711381
111,flying fish cove,-10.4217,105.6791,25.82000000000005,83,75,4.63,CX,1699711381
112,bereznik,62.8551,42.7072,1.2100000000000364,99,100,1.62,RU,1699711381
113,kirensk,57.7853,108.1119,-10.019999999999982,88,58,1.34,RU,1699711381
114,tutoia,-2.7619,-42.2744,30.33000000000004,54,7,7.23,BR,1699711381
115,hammerfest,70.6634,23.6821,-0.75,86,75,1.54,NO,1699711381
116,ardakan,32.31,54.0175,20.810000000000002,23,1,3.2,IR,1699711381
117,la passe,45.5549,-0.8967,14.129999999999995,82,100,3.55,FR,1699711382
118,bredasdorp,-34.5322,20.0403,21.450000000000045,48,9,9.78,ZA,1699711382
119,uliastay,47.7417,96.8444,-15.25,56,19,3.37,MN,1699711382
120,midar,34.9403,-3.5331,21.650000000000034,40,14,1.29,MA,1699711382
121,ariquemes,-9.9133,-63.0408,32.60000000000002,49,93,1.72,BR,1699711331
122,stephenville,32.2207,-98.2023,12.439999999999998,77,100,1.54,US,1699711382
123,brisas de zicatela,15.8369,-97.0419,26.79000000000002,75,31,1.29,MX,1699711382
124,carnarvon,-24.8667,113.6333,20.75,74,4,6.51,AU,1699711383
125,hammonton,39.6365,-74.8024,7.660000000000025,68,100,2.49,US,1699711383
126,ust-nera,64.5667,143.2,-32.76999999999998,99,64,1.96,RU,1699711383
127,villa comaltitlan,15.2167,-92.5833,27.49000000000001,68,50,0.75,MX,1699711383
128,saint-francois,46.4154,3.9054,11.689999999999998,67,0,2.57,FR,1699711383
129,essaouira,31.5125,-9.77,25.720000000000027,44,7,4.12,MA,1699711383
130,treasure island,27.7692,-82.769,27.03000000000003,83,0,0.45,US,1699711384
131,dryden,49.7833,-92.7503,-2.839999999999975,86,100,3.09,CA,1699711384
132,el calafate,-50.3408,-72.2768,3.400000000000034,85,100,6.09,AR,1699711384
133,leticia,-4.2153,-69.9406,28.03000000000003,89,40,1.54,CO,1699711375
134,geraldton,-28.7667,114.6,20.230000000000018,88,68,4.12,AU,1699711384
135,fale old settlement,-9.3852,-171.2468,28.77000000000004,74,14,3.22,TK,1699711385
136,tsafe,11.9553,6.9223,35.5,12,97,3.39,NG,1699711385
137,griffith,41.5284,-87.4237,5.03000000000003,89,0,0.0,US,1699711213
138,piacabucu,-10.4056,-36.4344,29.57000000000005,53,56,5.67,BR,1699711385
139,afaahiti,-17.75,-149.2833,25.930000000000007,81,66,6.39,PF,1699711385
140,robore,-18.3333,-59.75,39.35000000000002,26,15,7.29,BO,1699711386
141,mariental,-24.6333,17.9667,36.33000000000004,10,100,4.46,NA,1699711386
142,puerto aysen,-45.4,-72.7,5.75,100,100,1.83,CL,1699711386
143,mae sai,20.4335,99.8762,22.970000000000027,91,37,0.9,TH,1699711386
144,beira,-19.8436,34.8389,29.05000000000001,62,20,5.81,MZ,1699711387
145,sorong,-0.8833,131.25,26.80000000000001,84,55,3.19,ID,1699711387
146,haiku-pauwela,20.9219,-156.3051,24.470000000000027,72,10,4.47,US,1699711387
147,katsuura,35.1333,140.3,13.960000000000036,71,100,6.59,JP,1699711388
148,carutapera,-1.195,-46.02,31.08000000000004,55,18,5.72,BR,1699711388
149,hawaiian paradise park,19.5933,-154.9731,22.160000000000025,93,61,1.52,US,1699711388
150,cafayate,-26.073,-65.9761,29.689999999999998,11,0,1.92,AR,1699711389
151,urzhar,47.093,81.6294,5.680000000000007,76,31,3.58,KZ,1699711389
152,udachny,66.4167,112.4,-13.560000000000002,86,13,3.79,RU,1699711389
153,campo de criptana,39.4046,-3.1249,17.110000000000014,64,100,7.98,ES,1699711390
154,shache,38.4167,77.2406,9.260000000000048,29,57,3.51,CN,1699711390
155,dannenberg,53.0967,11.09,7.860000000000014,82,100,3.33,DE,1699711390
156,luderitz,-26.6481,15.1594,22.02000000000004,56,0,13.49,NA,1699711390
157,hamilton,39.1834,-84.5333,5.28000000000003,80,1,0.89,US,1699711259
158,nogliki,51.8333,143.1667,-7.029999999999973,81,97,8.05,RU,1699711391
159,miringa,10.7312,12.1463,35.24000000000001,15,78,2.94,NG,1699711391
160,alma,48.5501,-71.6491,-2.7199999999999704,89,97,5.07,CA,1699711391
161,anqing,30.5092,117.0506,10.170000000000016,86,100,5.88,CN,1699711392
162,abepura,-2.6333,140.5833,27.450000000000045,83,20,1.03,ID,1699711392
163,katsuren-haebaru,26.3369,127.8719,23.010000000000048,78,100,6.74,JP,1699711393
164,stanley,54.868,-1.6985,8.620000000000005,74,40,3.09,GB,1699711393
165,castillos,-34.1667,-53.8333,23.680000000000007,82,83,3.89,UY,1699711394
166,undurkhaan,47.3194,110.6556,-17.899999999999977,91,12,1.49,MN,1699711394
167,klaksvik,62.2266,-6.589,5.510000000000048,69,76,5.37,FO,1699711394
168,kuang,3.2594,101.5541,28.840000000000032,79,20,1.54,MY,1699711394
169,talcahuano,-36.7167,-73.1167,10.830000000000041,90,100,8.36,CL,1699711395
170,jamestown,42.097,-79.2353,6.1200000000000045,87,100,2.57,US,1699711396
171,enewetak,11.3474,162.3373,28.150000000000034,75,94,6.07,MH,1699711396
172,howrah,22.5892,88.3103,27.0,65,0,2.06,IN,1699711270
173,rongelap,11.1635,166.8941,27.430000000000007,82,98,8.25,MH,1699711396
174,faaa,-17.55,-149.6,26.980000000000018,74,75,4.63,PF,1699711396
175,hailar,49.2,119.7,-23.579999999999984,100,73,0.65,CN,1699711396
176,noyabrsk,63.1994,75.4507,0.12999999999999545,95,100,5.81,RU,1699711397
177,heze,35.2431,115.4411,3.0300000000000296,60,1,2.09,CN,1699711397
178,rome,34.257,-85.1647,11.930000000000007,93,100,3.09,US,1699710846
179,iskateley,67.6803,53.1512,-4.989999999999952,94,100,8.05,RU,1699711397
180,kapuskasing,49.4169,-82.4331,-3.9499999999999886,93,100,1.54,CA,1699711243
181,la'ie,21.6477,-157.9253,25.340000000000032,77,13,1.34,US,1699711397
182,ulety,51.3572,112.4849,-13.560000000000002,96,14,1.81,RU,1699711397
183,loiza,18.4313,-65.8802,30.27000000000004,79,60,7.34,PR,1699711397
184,marat,25.0701,45.4615,25.510000000000048,23,97,3.16,SA,1699711398
185,lebu,-37.6167,-73.65,9.25,82,100,8.11,CL,1699711398
186,ilhabela,-23.7781,-45.3581,28.560000000000002,70,14,3.17,BR,1699711398
187,bahia de kino,28.8333,-111.9333,18.480000000000018,40,0,3.31,MX,1699711398
188,machico,32.7,-16.7667,23.730000000000018,79,40,3.09,PT,1699711398
189,olonkinbyen,70.9221,-8.7187,2.0,82,100,4.64,SJ,1699711398
190,freetown,8.484,-13.2299,26.840000000000032,89,75,3.09,SL,1699711399
191,puerto ayacucho,5.6639,-67.6236,28.930000000000007,74,64,0.3,VE,1699711131
192,massawa,15.6097,39.45,30.28000000000003,58,14,3.4,ER,1699711399
193,okola,4.0167,11.3833,28.30000000000001,58,69,0.92,CM,1699711399
194,nar'yan-mar,67.6713,53.087,-4.939999999999998,94,100,8.05,RU,1699711399
195,hilo,19.7297,-155.09,22.57000000000005,86,67,0.45,US,1699711399
196,mount isa,-20.7333,139.5,23.870000000000005,78,100,2.06,AU,1699711399
197,uttaradit,17.6667,100.5,26.120000000000005,95,25,0.91,TH,1699711399
198,gislaved,57.3044,13.5408,8.660000000000025,87,91,1.14,SE,1699711400
199,tazovsky,67.4667,78.7,-5.529999999999973,96,100,3.46,RU,1699711400
200,labytnangi,66.6572,66.4183,-5.289999999999964,96,100,2.19,RU,1699711400
201,georgetown,5.4112,100.3354,28.30000000000001,95,20,4.63,MY,1699711133
202,ayr,55.4627,-4.6339,10.28000000000003,62,20,1.54,GB,1699711401
203,yafran,32.0633,12.5286,21.650000000000034,27,0,6.18,LY,1699711401
204,vila franca do campo,37.7167,-25.4333,22.160000000000025,99,0,4.5,PT,1699711401
205,aldama,22.9167,-98.0667,18.05000000000001,82,100,2.45,MX,1699711401
206,edmundston,47.3737,-68.3251,-0.37000000000000455,71,100,7.72,CA,1699711402
207,talara,-4.5772,-81.2719,22.420000000000016,73,0,10.29,PE,1699711402
208,praia da vitoria,38.7333,-27.0667,21.140000000000043,78,20,3.46,PT,1699711402
209,alofi,-19.0595,-169.9187,22.939999999999998,94,100,7.72,NU,1699711403
210,oytal,42.9057,73.2697,11.110000000000014,35,100,1.5,KZ,1699711403
211,kiunga,-6.1219,141.2906,23.03000000000003,83,100,1.35,PG,1699711403
212,arawa,-6.2132,155.5367,24.689999999999998,93,100,2.64,PG,1699711403
213,puerto madryn,-42.7692,-65.0385,21.400000000000034,27,18,6.37,AR,1699711403
214,ad dilam,23.9915,47.1627,27.230000000000018,25,100,0.25,SA,1699711381
215,kalamata,37.0389,22.1142,22.870000000000005,72,40,2.24,GR,1699711404
216,la mira,18.035,-102.3266,25.120000000000005,81,15,1.9,MX,1699711404
217,novyy turtkul',41.55,61.0167,10.950000000000045,43,3,3.82,UZ,1699711404
218,gadzhiyevo,69.2551,33.3362,-3.8999999999999773,74,81,3.9,RU,1699711404
219,port alfred,-33.5906,26.891,21.210000000000036,82,47,4.47,ZA,1699711404
220,inyati,-19.6756,28.8469,32.879999999999995,13,4,4.09,ZW,1699711409
221,kailua-kona,19.6406,-155.9956,23.060000000000002,96,3,0.91,US,1699711156
222,tsiombe,-25.3,45.4833,23.82000000000005,52,0,6.97,MG,1699711410
223,lompoc,34.6391,-120.4579,12.0,92,0,5.14,US,1699711410
224,manta,-0.95,-80.7333,24.879999999999995,73,100,4.12,EC,1699711235
225,weno,7.4515,151.8468,28.560000000000002,78,36,6.5,FM,1699711410
226,saipan,15.1355,145.701,28.390000000000043,78,20,7.2,MP,1699711199
227,nayoro,44.3506,142.4578,-1.6299999999999955,98,100,0.53,JP,1699711410
228,paidha,2.4167,30.9855,23.370000000000005,64,98,2.0,UG,1699711410
229,dengzhou,37.8086,120.7508,3.910000000000025,76,96,2.14,CN,1699711411
230,papao,-17.75,-149.55,26.82000000000005,77,77,5.66,PF,1699711411
231,yashkul',46.1711,45.3435,9.920000000000016,45,48,4.08,RU,1699711411
232,rudnichnyy,59.617,52.4703,-1.2099999999999795,90,97,1.66,RU,1699711411
233,hadibu,12.65,54.0333,27.24000000000001,81,100,4.77,YE,1699711411
234,pemangkat,1.1667,108.9667,27.55000000000001,74,100,1.11,ID,1699711412
235,vicuna mackenna,-33.9197,-64.3922,23.27000000000004,45,0,3.14,AR,1699711412
236,lazaro cardenas,17.9583,-102.2,25.439999999999998,82,13,1.96,MX,1699711298
237,sosnogorsk,63.6023,53.8817,-0.8100000000000023,95,100,2.68,RU,1699711412
238,kitimat,54.0524,-128.6534,2.2100000000000364,64,100,1.18,CA,1699711412
239,saint-pierre,-21.3393,55.4781,26.430000000000007,73,40,5.14,RE,1699711413
240,shingu,33.7333,135.9833,11.730000000000018,72,90,2.47,JP,1699711413
241,porto novo,6.4965,2.6036,31.900000000000034,63,98,4.31,BJ,1699711413
242,port elizabeth,-33.918,25.5701,21.840000000000032,72,20,11.83,ZA,1699711351
243,tucuma,-0.1833,-50.05,31.150000000000034,56,75,4.63,BR,1699711414
244,puerto el triunfo,13.2833,-88.55,27.610000000000014,78,19,1.72,SV,1699711390
245,sibut,5.718,19.0739,23.110000000000014,93,100,1.07,CF,1699711414
246,tobelo,1.7284,128.0095,27.010000000000048,81,100,1.28,ID,1699711414
247,ilebo,-4.3167,20.5833,24.480000000000018,94,100,1.04,CD,1699711414
248,cannonvale,-20.2833,148.7,23.660000000000025,73,14,6.11,AU,1699711414
249,bolivar,37.6145,-93.4105,7.170000000000016,72,91,2.86,US,1699711415
250,kodiak,57.79,-152.4072,1.1400000000000432,62,11,9.75,US,1699711415
251,belmonte,-15.8631,-38.8828,28.640000000000043,61,60,4.64,BR,1699711415
252,mugia,43.1041,-9.2179,18.840000000000032,94,100,11.88,ES,1699711415
253,fort bragg,35.139,-79.006,10.810000000000002,89,100,2.06,US,1699711416
254,goz beida,13.95,20.55,39.460000000000036,14,85,4.17,TD,1699711416
255,severo-yeniseyskiy,60.3725,93.0408,-10.239999999999952,93,100,1.34,RU,1699711416
256,puerto armuelles,8.2833,-82.8667,28.980000000000018,84,99,3.13,PA,1699711416
257,danilov,58.1908,40.1717,3.3600000000000136,92,100,2.87,RU,1699711417
258,taoudenni,22.6783,-3.9836,33.59000000000003,7,22,4.27,ML,1699711417
259,djibouti,11.5,42.5,26.460000000000036,55,56,8.37,DJ,1699710982
260,petropavlovsk-kamchatsky,53.0452,158.6483,0.3300000000000409,98,100,2.0,RU,1699711417
261,bikenibeu village,1.3673,173.1241,27.980000000000018,89,100,4.12,KI,1699711417
262,vorgashor,67.5833,63.95,-8.489999999999952,98,69,3.2,RU,1699711423
263,tolanaro,-25.0319,46.9987,26.04000000000002,50,20,8.23,MG,1699711423
264,formosa,-26.1775,-58.1781,36.650000000000034,47,98,5.14,AR,1699711369
265,tambura,5.6,27.4667,28.57000000000005,63,99,2.29,SS,1699711423
266,brookings,44.3114,-96.7984,1.2100000000000364,83,0,5.14,US,1699711423
267,amursk,50.2261,136.8994,-8.899999999999977,92,100,5.11,RU,1699711423
268,ayorou,14.7308,0.9174,38.650000000000034,6,38,5.34,NE,1699711292
269,salym,60.0625,71.4789,0.1400000000000432,96,68,3.25,RU,1699711274
270,thunder bay,48.4001,-89.3168,-0.009999999999990905,80,100,0.0,CA,1699711424
271,berriane,32.8265,3.7669,24.450000000000045,29,0,6.31,DZ,1699711283
272,rio tuba,8.5061,117.4317,28.210000000000036,79,4,3.97,PH,1699711424
273,malango,-2.9627,119.9001,20.879999999999995,94,100,0.74,ID,1699711424
274,walvis bay,-22.9575,14.5053,21.53000000000003,64,0,6.69,NA,1699711424
275,uyuni,-20.4597,-66.825,13.020000000000039,31,99,7.07,BO,1699711425
276,coquimbo,-29.9533,-71.3436,16.850000000000023,82,75,6.69,CL,1699711425
277,zheleznodorozhnyy,55.7503,38.0042,7.230000000000018,74,100,3.58,RU,1699711425
278,vallenar,-28.5708,-70.7581,23.450000000000045,33,0,2.16,CL,1699711425
279,boca suno,-0.7167,-77.1333,23.77000000000004,90,91,0.76,EC,1699711301
280,dul'durga,50.6761,113.5931,-13.759999999999991,94,21,1.97,RU,1699711425
281,kourou,5.1552,-52.6478,30.960000000000036,61,15,5.03,GF,1699711425
282,bamboo flat,11.7,92.7167,28.05000000000001,83,40,1.03,IN,1699711425
283,laurel,39.0993,-76.8483,7.830000000000041,90,0,2.06,US,1699711425
284,hasaki,35.7333,140.8333,12.379999999999995,62,100,6.24,JP,1699711425
285,magistral'nyy,56.1725,107.4458,-12.569999999999993,94,20,1.17,RU,1699711426
286,pisco,-13.7,-76.2167,20.010000000000048,88,100,1.03,PE,1699711426
287,harstad,68.799,16.5293,-0.46999999999997044,96,25,3.13,NO,1699711426
288,melekeok village,7.4957,134.6367,27.310000000000002,94,75,1.54,PW,1699711426
289,magadan,59.5667,150.8,-17.789999999999964,83,2,5.32,RU,1699711426
290,palikir - national government center,6.9248,158.1611,28.120000000000005,73,100,3.4,FM,1699711426
291,nagram,26.6167,81.1333,24.03000000000003,45,51,2.31,IN,1699711426
292,nemuro,43.3236,145.575,3.160000000000025,74,43,7.44,JP,1699711426
293,caleta de carquin,-11.0925,-77.6267,20.980000000000018,77,96,3.63,PE,1699711427
294,albardon,-31.4372,-68.5256,23.57000000000005,33,0,1.43,AR,1699711427
295,jijiga,9.35,42.8,22.29000000000002,49,91,7.63,ET,1699711427
296,island harbour,50.724,-1.2758,12.340000000000032,78,67,1.23,GB,1699711427
297,merizo village,13.2658,144.6691,28.100000000000023,87,83,8.0,GU,1699711427
298,tidjikja,18.5564,-11.4271,32.370000000000005,10,10,3.89,MR,1699711427
299,remire-montjoly,4.9167,-52.2667,29.480000000000018,70,3,6.01,GF,1699711427
300,zhosaly,45.4878,64.0781,9.110000000000014,52,83,8.46,KZ,1699711427
301,oranjemund,-28.55,16.4333,18.75,71,1,8.82,NA,1699711427
302,nuuk,64.1835,-51.7216,-5.659999999999968,73,40,4.12,GL,1699711267
303,kertih,4.5141,103.4483,28.010000000000048,89,95,1.54,MY,1699711428
304,tulun,54.5611,100.5792,-13.779999999999973,96,9,1.47,RU,1699711428
305,maragogi,-9.0122,-35.2225,28.83000000000004,55,71,5.88,BR,1699711340
306,srivardhan,18.0333,73.0167,28.170000000000016,72,25,1.68,IN,1699711428
307,vila velha,-20.3297,-40.2925,30.970000000000027,70,0,5.81,BR,1699711330
308,mudgal,16.0167,76.4333,25.810000000000002,49,6,3.68,IN,1699711428
309,otjimbingwe,-22.35,16.1333,36.620000000000005,12,90,8.75,NA,1699711428
310,assis,-22.6617,-50.4122,35.84000000000003,20,50,5.5,BR,1699711147
311,egilsstadir,65.2653,-14.3948,-2.0499999999999545,74,0,1.54,IS,1699711428
312,san luis de la loma,17.2706,-100.8939,26.390000000000043,82,51,1.33,MX,1699711428
313,tepecoacuilco de trujano,18.3,-99.4833,21.99000000000001,90,89,0.86,MX,1699711428
314,sisimiut,66.9395,-53.6735,-7.310000000000002,78,100,5.65,GL,1699711429
315,utrik,11.2278,169.8474,25.939999999999998,92,100,5.4,MH,1699711429
316,sao jose da coroa grande,-8.8978,-35.1478,28.850000000000023,55,79,5.58,BR,1699711429
317,gaiman,-43.2897,-65.4929,21.939999999999998,23,96,6.46,AR,1699711429
318,saldanha,-33.0117,17.9442,22.03000000000003,75,36,5.81,ZA,1699711429
319,rikaze,29.25,88.8833,3.7900000000000205,21,1,1.66,CN,1699711429
320,bodaybo,57.8506,114.1933,-13.349999999999966,99,99,0.83,RU,1699711430
321,san antonio de pale,-1.4014,5.6325,26.189999999999998,83,94,6.02,GQ,1699711430
322,el galpon,-25.3807,-64.6526,36.60000000000002,33,0,2.1,AR,1699711430
323,mtsensk,53.2766,36.5733,4.32000000000005,79,100,6.75,RU,1699711430
324,sovetskaya gavan',48.9723,140.2878,-8.829999999999984,82,71,5.94,RU,1699711430
325,rosa zarate,0.3333,-79.4667,24.49000000000001,87,100,1.01,EC,1699711318
326,masterton,-40.9597,175.6575,10.490000000000009,97,3,1.63,NZ,1699711430
327,sitka,57.0531,-135.33,3.9399999999999977,81,100,4.12,US,1699711296
328,nelson bay,-32.7167,152.15,22.03000000000003,88,6,4.02,AU,1699711430
329,colonia,50.9333,6.95,10.590000000000032,81,75,5.66,DE,1699711430
330,ebaye,8.7748,167.7392,27.010000000000048,89,40,6.69,MH,1699711431
331,pastos bons,-6.6017,-44.0767,35.60000000000002,27,31,3.75,BR,1699711431
332,kayangel,8.0823,134.7173,29.379999999999995,76,75,5.76,PW,1699711431
333,kill devil hills,36.0307,-75.676,14.430000000000007,71,40,6.17,US,1699711209
334,middletown,39.5151,-84.3983,4.930000000000007,88,0,3.09,US,1699710932
335,apiai,-24.5094,-48.8425,31.200000000000045,32,5,2.87,BR,1699711431
336,verkhnevilyuysk,63.4453,120.3167,-7.279999999999973,82,100,5.15,RU,1699711431
337,victoria,22.2855,114.1577,25.74000000000001,85,87,4.02,HK,1699711141
338,nyurba,63.2842,118.3319,-6.649999999999977,80,100,5.2,RU,1699711431
339,hasselt,50.9311,5.3378,9.900000000000034,83,51,5.36,BE,1699711432
340,kone,-21.0595,164.8658,19.260000000000048,80,30,1.67,NC,1699711432
341,urengoy,65.9667,78.3667,-4.949999999999989,95,100,3.46,RU,1699711432
342,tosno,59.54,30.8775,6.03000000000003,92,100,2.18,RU,1699711432
343,chita,52.0333,113.55,-11.060000000000002,79,14,3.0,RU,1699711432
344,ulladulla,-35.35,150.4667,18.200000000000045,87,100,3.68,AU,1699711432
345,pandan,14.0453,124.1694,27.210000000000036,81,51,5.4,PH,1699711432
346,bom sucesso,-21.0331,-44.7581,31.400000000000034,30,12,2.65,BR,1699711432
347,el fasher,13.6279,25.3494,32.879999999999995,19,60,1.22,SD,1699711432
348,shakhtinsk,49.71,72.5872,6.090000000000032,71,100,6.96,KZ,1699711433
349,ta`u,-14.2336,-169.5144,27.03000000000003,83,20,4.36,AS,1699711433
350,levuka,50.1834,-105.4011,-1.1599999999999682,80,3,4.07,CA,1699711433
351,kenai,60.5544,-151.2583,-2.169999999999959,98,100,1.54,US,1699711433
352,nadi,-17.8,177.4167,25.0,69,20,5.14,FJ,1699711433
353,berdigestyakh,62.0989,126.6992,-9.95999999999998,94,100,3.48,RU,1699711433
354,tateyama,34.9833,139.8667,12.830000000000041,74,100,6.97,JP,1699711433
355,kili,5.6439,169.1211,27.850000000000023,83,100,7.2,MH,1699711433
356,midvagur,62.0511,-7.1939,5.460000000000036,75,47,4.12,FO,1699711434
357,kerikeri,-35.2268,173.9474,9.260000000000048,86,97,1.94,NZ,1699711434
358,coahuayana de hidalgo,18.7,-103.6583,25.55000000000001,82,95,1.51,MX,1699711434
359,st. john's,47.5649,-52.7093,3.150000000000034,94,100,10.29,CA,1699711353
360,shimoda,34.6667,138.95,11.720000000000027,84,100,6.85,JP,1699711434
361,jieshi,22.8134,115.8257,22.370000000000005,82,33,8.85,CN,1699711434
362,dunedin,-45.8742,170.5036,10.78000000000003,87,59,1.88,NZ,1699711322
363,kapa'a,22.0752,-159.319,23.99000000000001,90,28,3.13,US,1699711434
364,vernon,50.2581,-119.2691,9.200000000000045,63,100,2.57,CA,1699711206
365,nikol'sk,53.7189,46.0712,2.990000000000009,90,17,1.84,RU,1699711435
366,boca do acre,-8.7522,-67.3978,36.25,40,6,0.36,BR,1699711378
367,isangel,-19.55,169.2667,22.640000000000043,71,97,6.9,VU,1699711435
368,touros,-5.1989,-35.4608,30.02000000000004,53,1,7.17,BR,1699711236
369,bikaner,28.0167,73.3,23.82000000000005,34,0,3.13,IN,1699711435
370,arraial do cabo,-22.9661,-42.0278,27.980000000000018,74,0,3.6,BR,1699711435
371,peniche,39.3558,-9.3811,21.160000000000025,80,100,6.61,PT,1699711363
372,sakleshpur,12.9667,75.7833,19.920000000000016,67,23,2.24,IN,1699711435
373,suva,-18.1416,178.4415,24.710000000000036,78,75,4.12,FJ,1699711435
374,kyabram,-36.3167,145.05,13.260000000000048,69,2,6.04,AU,1699711435
375,kruisfontein,-34.0033,24.7314,20.430000000000007,56,0,10.64,ZA,1699711436
376,sechura,-5.5569,-80.8222,22.58000000000004,67,40,4.53,PE,1699711436
377,sinop,41.7711,34.8709,17.840000000000032,48,100,4.69,TR,1699711436
378,minas de marcona,-15.2119,-75.1103,16.78000000000003,79,85,4.53,PE,1699711436
379,nanma,36.1817,118.1583,0.3100000000000023,65,6,1.78,CN,1699711394
380,yuxi,24.355,102.5422,14.57000000000005,80,0,0.71,CN,1699711436
381,callao,-12.0667,-77.15,23.730000000000018,77,75,4.63,PE,1699711394
382,poxoreo,-15.8372,-54.3892,38.68000000000001,22,24,3.84,BR,1699711377
383,naze,28.3667,129.4833,18.510000000000048,69,91,5.57,JP,1699711436
384,figuig (centre),32.1089,-1.2286,25.55000000000001,25,0,3.47,MA,1699711436
385,tazacorte,28.629,-17.9293,25.08000000000004,75,75,4.12,ES,1699711437
386,baku,40.3777,49.892,17.03000000000003,72,75,7.2,AZ,1699711350
387,richards bay,-28.783,32.0377,32.19,52,77,7.75,ZA,1699711437
388,sao miguel do araguaia,-13.275,-50.1628,37.89000000000004,26,18,2.03,BR,1699711437
389,ibarreta,-25.2144,-59.8585,40.19,24,81,7.78,AR,1699711437
390,dudinka,69.4058,86.1778,-12.17999999999995,97,100,2.71,RU,1699711437
391,mili,6.0815,171.735,27.55000000000001,83,100,5.58,MH,1699711437
392,frontera,26.9333,-101.45,11.860000000000014,87,100,0.0,MX,1699711437
393,kavaratti,10.5669,72.642,29.08000000000004,74,88,4.0,IN,1699711437
394,minzhu,43.7286,127.3447,-13.329999999999984,98,17,0.89,CN,1699711438
395,sassandra,4.95,-6.0833,27.77000000000004,82,33,3.47,CI,1699711438
396,juneau,58.3019,-134.4197,5.0,95,100,4.12,US,1699711172
397,jurmala,56.968,23.7704,6.100000000000023,93,40,2.06,LV,1699711439
398,kantharalak,14.6406,104.6499,27.760000000000048,100,76,1.19,TH,1699711439
399,zhangjiakou,40.81,114.8794,-6.9599999999999795,54,6,5.94,CN,1699711245
400,turinskaya sloboda,57.6232,64.3858,3.0600000000000023,97,100,2.2,RU,1699711440
401,itaituba,-4.2761,-55.9836,32.09000000000003,62,20,4.12,BR,1699711149
402,arkhangel'sk,64.5401,40.5433,0.6299999999999955,98,99,1.97,RU,1699711440
403,new plymouth,-39.0667,174.0833,8.510000000000048,80,19,3.46,NZ,1699711440
404,fortuna,40.5982,-124.1573,7.510000000000048,97,75,0.0,US,1699711229
405,plastun,44.7561,136.2939,-7.089999999999975,60,0,3.13,RU,1699711440
406,beau vallon,-20.4189,57.6953,25.120000000000005,94,75,2.57,MU,1699711441
407,shakawe,-18.3667,21.85,37.870000000000005,13,43,4.27,BW,1699711441
408,hopelchen,19.7667,-89.85,25.110000000000014,91,75,2.12,MX,1699711441
409,mbuji-mayi,-6.15,23.6,29.83000000000004,56,100,0.93,CD,1699711441
410,murudeshwara,14.0943,74.4845,28.220000000000027,69,43,0.63,IN,1699711441
411,berezovyy,51.6667,135.7,-8.319999999999993,74,93,0.69,RU,1699711441
412,okhotsk,59.3833,143.3,-17.619999999999976,84,10,9.17,RU,1699711442
413,shitanjing,39.2342,106.3439,-5.569999999999993,17,0,2.2,CN,1699711442
414,santiago de cao,-7.9589,-79.2392,19.07000000000005,88,75,4.12,PE,1699711442
415,malpica,43.3228,-8.8105,19.629999999999995,72,100,9.81,ES,1699711442
416,paita,-5.0892,-81.1144,21.470000000000027,73,72,5.04,PE,1699711443
417,akjoujt,19.6969,-14.4164,35.160000000000025,12,4,4.96,MR,1699711443
418,aykhal,66.0,111.5,-13.979999999999961,90,79,2.74,RU,1699711443
419,yulinshi,38.2906,109.7494,-3.339999999999975,22,0,5.79,CN,1699711444
420,gulf shores,30.246,-87.7008,20.75,82,100,2.57,US,1699711444
421,revda,56.801,59.9303,1.6800000000000068,99,100,1.46,RU,1699711444
422,floro,61.5996,5.0328,5.980000000000018,61,52,2.06,NO,1699711444
423,hwaseong-si,37.2068,126.8169,1.9399999999999977,51,11,6.42,KR,1699711444
424,guapiles,10.2159,-83.7866,27.629999999999995,99,100,0.75,CR,1699711168
425,byerazino,53.8391,28.9879,5.980000000000018,90,100,4.84,BY,1699711445
426,quatre cocos,-20.2078,57.7625,25.05000000000001,69,94,1.3,MU,1699711446
427,khanty-mansiysk,61.0042,69.0019,1.0600000000000023,100,75,3.13,RU,1699711260
428,sola,-13.8833,167.55,26.08000000000004,83,100,12.52,VU,1699711446
429,la penita de jaltomba,21.0333,-105.25,26.610000000000014,77,100,1.22,MX,1699711447
430,sakaiminato,35.55,133.2333,10.990000000000009,100,75,2.57,JP,1699711447
431,nova vas,45.7717,14.5058,9.270000000000039,95,92,1.13,SI,1699711447
432,bel ombre,-4.6167,55.4167,29.910000000000025,74,20,4.12,SC,1699711447
433,kavieng,-2.5744,150.7967,27.890000000000043,79,100,4.71,PG,1699711447
434,visby,57.6409,18.296,8.120000000000005,93,75,1.54,SE,1699711447
435,flin flon,54.7682,-101.865,-3.089999999999975,93,75,5.66,CA,1699711399
436,pankrushikha,53.8319,80.3406,2.590000000000032,96,100,3.71,RU,1699711448
437,aguas formosas,-17.0822,-40.9358,34.74000000000001,28,1,1.95,BR,1699711178
438,tabou,4.423,-7.3528,27.439999999999998,81,47,4.36,CI,1699711448
439,cotonou,6.3654,2.4183,31.99000000000001,70,40,6.17,BJ,1699711448
440,mahibadhoo,3.7833,72.9667,28.439999999999998,72,95,3.06,MV,1699711448
441,salinopolis,-0.6136,-47.3561,29.180000000000007,67,96,6.91,BR,1699711448
442,vadso,70.0744,29.7487,-3.909999999999968,86,20,4.12,NO,1699711449
443,funadhoo,6.15,73.2667,28.560000000000002,73,93,2.33,MV,1699711449
444,bubaque,11.2833,-15.8333,27.939999999999998,50,40,0.87,GW,1699711449
445,mount gambier,-37.8333,140.7667,6.300000000000011,98,2,0.83,AU,1699711266
446,anse la raye,13.9333,-61.0333,28.83000000000004,77,40,4.63,LC,1699711449
447,port-vila,-17.7338,168.3219,22.78000000000003,88,75,2.57,VU,1699711319
448,lubao,14.9167,120.55,28.840000000000032,78,92,2.33,PH,1699711449
449,rundu,-17.9333,19.7667,34.79000000000002,21,79,5.19,NA,1699711450
450,sanchursk,56.9413,47.2499,2.7800000000000296,67,68,3.02,RU,1699711450
451,north battleford,52.7834,-108.2847,-3.659999999999968,93,0,5.66,CA,1699711450
452,calingasta,-31.3308,-69.4078,25.850000000000023,4,0,9.2,AR,1699711450
453,burang,30.25,81.1667,-4.310000000000002,91,44,0.84,CN,1699711450
454,ola,59.5833,151.2833,-17.70999999999998,84,2,6.29,RU,1699711450
455,leh,34.1667,77.5833,2.090000000000032,46,8,0.2,IN,1699711450
456,puerto colombia,10.9878,-74.9547,29.05000000000001,72,60,2.08,CO,1699711450
457,tura,25.5198,90.2201,19.600000000000023,90,1,1.39,IN,1699711450
458,kolonia town,6.964,158.206,28.689999999999998,73,100,3.27,FM,1699711451
459,sinnar,13.5691,33.5672,35.51000000000005,25,67,3.09,SD,1699711451
460,vize,41.5725,27.7658,17.02000000000004,79,86,10.7,TR,1699711451
461,buulobarde,3.8538,45.5674,24.54000000000002,88,100,7.6,SO,1699711451
462,ts'alenjikha,42.6044,42.0682,15.490000000000009,55,84,2.69,GE,1699711451
463,igarka,67.4667,86.5833,-9.21999999999997,95,100,5.67,RU,1699711452
464,tual,-5.6667,132.75,28.120000000000005,79,90,4.56,ID,1699711452
465,al muwayh,22.4333,41.7583,26.49000000000001,23,8,6.08,SA,1699711452
466,las khorey,11.1595,48.1967,28.129999999999995,76,100,5.88,SO,1699711452
467,darwin,-12.4611,130.8418,27.99000000000001,79,40,0.51,AU,1699711452
468,howard springs,-12.497,131.047,27.950000000000045,85,35,1.12,AU,1699711452
469,luena,-11.7833,19.9167,28.760000000000048,37,100,3.15,AO,1699711452
470,ebon,4.582,168.6964,26.02000000000004,89,100,7.12,MH,1699711453
471,kendari,-3.945,122.4989,25.450000000000045,85,80,0.65,ID,1699711453
472,burutu,5.3509,5.5076,30.100000000000023,67,74,4.87,NG,1699711453
473,mejit,10.2753,170.8646,27.53000000000003,84,100,7.76,MH,1699711453
474,susuman,62.7833,148.1667,-31.95999999999998,99,80,0.22,RU,1699711453
475,ocean city,39.2776,-74.5746,7.210000000000036,86,100,2.24,US,1699711399
476,nikki,9.9401,3.2108,36.39000000000004,21,76,1.52,BJ,1699711453
477,solapur,17.6833,75.9167,27.08000000000004,45,100,4.95,IN,1699711453
478,beyneu,45.3167,55.2,7.920000000000016,63,6,6.34,KZ,1699711454
479,anloga,5.7947,0.8973,28.99000000000001,74,91,6.53,GH,1699711454
480,el bayadh,33.6832,1.0193,18.629999999999995,42,0,8.86,DZ,1699711454
481,saint croix,17.7397,-64.7388,28.310000000000002,77,100,4.02,VI,1699711454
482,argo,37.6333,22.7333,20.99000000000001,58,96,4.75,GR,1699711454
483,valparaiso,-33.0393,-71.6273,16.930000000000007,71,100,1.51,CL,1699711352
484,mosjoen,65.836,13.1908,3.0600000000000023,51,0,4.12,NO,1699711455
485,luanda,-8.8368,13.2343,28.0,74,75,3.6,AO,1699711455
486,coracao de jesus,-16.6853,-44.365,33.78000000000003,22,1,2.68,BR,1699711455
487,sedalia,38.7045,-93.2283,5.180000000000007,75,0,4.63,US,1699711455
488,sao desiderio,-12.3633,-44.9733,35.55000000000001,22,5,3.7,BR,1699711455
489,tokar,18.4254,37.729,30.760000000000048,57,52,6.6,SD,1699711222
490,fort st. john,56.2499,-120.8529,0.9399999999999977,69,40,6.69,CA,1699711199
491,hailin,44.5833,129.4167,-17.72999999999999,96,40,1.51,CN,1699711456
492,leo,11.1,-2.1,35.27000000000004,29,88,0.69,BF,1699711456
493,arauca,7.0847,-70.7591,21.980000000000018,100,75,1.03,CO,1699711456
494,ilijas,43.9508,18.2708,11.25,81,75,6.17,BA,1699711456
495,titahari,26.6667,87.2833,21.689999999999998,57,0,2.07,NP,1699711456
496,new norfolk,-42.7826,147.0587,8.720000000000027,87,47,1.47,AU,1699711456
497,roma,43.2128,-75.4557,2.830000000000041,76,100,3.09,US,1699711457
498,magong,23.5654,119.5863,23.75,81,80,14.78,TW,1699711457
499,nantucket,41.2835,-70.0995,11.060000000000002,59,0,6.69,US,1699711399
500,sheki,41.1919,47.1706,11.360000000000014,63,41,1.44,AZ,1699711457
501,cabo san lucas,22.8909,-109.9124,24.730000000000018,77,0,1.34,MX,1699711335
502,alesund,62.4723,6.1549,6.720000000000027,71,0,2.06,NO,1699711458
503,filadelfia,39.9523,-75.1638,8.340000000000032,89,79,0.45,US,1699711382
504,lorengau,-2.0226,147.2712,26.939999999999998,83,96,3.52,PG,1699711458
505,jianshui,23.6363,102.8264,17.680000000000007,79,40,0.72,CN,1699711458
506,olot,42.181,2.4901,18.99000000000001,43,99,0.45,ES,1699711458
507,smara,26.7384,-11.6719,31.129999999999995,16,0,1.99,EH,1699711458
508,acapulco de juarez,16.8634,-99.8901,26.74000000000001,81,98,1.29,MX,1699711458
509,mora,11.0461,14.1401,37.03000000000003,15,95,3.57,CM,1699711459
510,fada,9.5667,8.3,34.420000000000016,18,21,2.22,NG,1699711459
511,nacaome,13.5361,-87.4875,30.129999999999995,80,64,0.83,HN,1699711459
512,kalocsa,46.5264,18.9858,7.270000000000039,84,100,7.79,HU,1699711394
513,hobyo,5.3505,48.5268,26.920000000000016,78,100,1.9,SO,1699711459
514,kandyagash,49.4744,57.4233,3.3799999999999955,90,100,8.59,KZ,1699711460
515,vicuna,-30.0319,-70.7081,24.32000000000005,36,0,3.22,CL,1699711460
516,selkirk,50.1436,-96.8845,-1.919999999999959,93,8,1.34,CA,1699711247
517,misratah,32.3754,15.0925,23.640000000000043,65,1,5.73,LY,1699711460
518,cartagena,10.3997,-75.5144,29.79000000000002,89,20,2.06,CO,1699711230
519,pariaman,-0.619,100.12,25.03000000000003,88,79,1.13,ID,1699711461
520,inarajan village,13.2736,144.7484,28.33000000000004,87,78,8.18,GU,1699711461
521,dhidhdhoo,6.8833,73.1,28.0,76,100,2.96,MV,1699711461
522,petrolina,-9.3986,-40.5008,29.03000000000003,45,0,5.66,BR,1699711202
523,ciudad sabinas hidalgo,26.5,-100.1667,14.580000000000041,81,100,1.77,MX,1699711461
524,jinghong,21.991,100.7341,24.680000000000007,73,98,0.54,CN,1699711461
525,ilomantsi,62.6716,30.9328,0.9399999999999977,97,100,4.08,FI,1699711461
526,cova figueira,14.8905,-24.2934,23.25,69,70,4.51,CV,1699711461
527,aguadulce,8.25,-80.55,28.82000000000005,93,100,3.26,PA,1699711462
528,glace bay,46.1969,-59.957,6.090000000000032,74,65,4.02,CA,1699711462
529,santa marta,11.2408,-74.199,28.03000000000003,89,40,4.63,CO,1699711271
530,kharan,28.5833,65.4167,21.53000000000003,14,0,1.45,PK,1699711462
531,chinsali,-10.5414,32.0816,31.650000000000034,25,100,4.61,ZM,1699711463
532,sao joao da barra,-21.6403,-41.0511,31.05000000000001,72,6,4.37,BR,1699711397
533,paso de carrasco,-34.8603,-56.0522,24.08000000000004,78,20,7.2,UY,1699711463
534,khandyga,62.6667,135.6,-27.44999999999999,99,100,1.37,RU,1699711463
535,gryazovets,58.88,40.2525,2.330000000000041,94,100,3.12,RU,1699711463
536,cockburn town,21.4612,-71.1419,27.99000000000001,75,5,10.47,TC,1699711464
537,lobujya,27.95,86.8167,-12.579999999999984,69,46,0.99,NP,1699711464
538,greymouth,-42.4667,171.2,13.78000000000003,78,2,4.96,NZ,1699711251
539,murzuq,25.9155,13.9184,29.25,16,0,1.28,LY,1699711464
540,northam,51.0333,-4.2167,12.010000000000048,78,100,3.03,GB,1699711464
541,zhumysker,49.3333,49.4,6.28000000000003,67,0,3.17,KZ,1699711464
542,kasongo,-4.45,26.6667,25.200000000000045,74,99,1.49,CD,1699711464
543,kangding,30.0513,101.9603,8.170000000000016,95,96,2.48,CN,1699711465
544,al kharijah,25.4514,30.5464,33.879999999999995,28,100,0.31,EG,1699711465
545,lamu,-2.2717,40.902,29.120000000000005,75,96,3.52,KE,1699711465
546,mount pearl,47.5166,-52.7813,2.6899999999999977,93,100,10.29,CA,1699711465
547,trashi yangtse,27.6116,91.498,11.410000000000025,86,49,0.15,BT,1699711466
548,gambiran satu,-8.3939,114.1464,24.340000000000032,93,59,0.93,ID,1699711466
549,quartu sant'elena,39.2419,9.1839,18.370000000000005,76,40,3.09,IT,1699711172
550,sanctuary point,-35.1114,150.629,20.420000000000016,90,100,4.97,AU,1699711466
551,tashtagol,52.7657,87.8894,-1.42999999999995,99,100,0.9,RU,1699711466
552,harnai,30.1005,67.9374,18.24000000000001,34,0,0.88,PK,1699711466
553,peace river,56.2501,-117.286,2.170000000000016,64,100,1.54,CA,1699711375
554,chifeng,42.2683,118.9636,-9.759999999999991,80,9,1.78,CN,1699711467
555,holly,42.792,-83.6277,3.740000000000009,91,9,0.89,US,1699711467
556,bafra,41.5678,35.9069,22.910000000000025,48,100,1.64,TR,1699711467
557,nema,57.5067,50.5011,-0.5699999999999932,79,33,1.43,RU,1699711467
558,caetes,-8.7731,-36.6225,29.32000000000005,30,55,4.97,BR,1699711467
559,maindargi,17.4667,76.3,26.700000000000045,43,49,4.71,IN,1699711467
560,timimoun,29.2639,0.231,28.210000000000036,23,0,1.03,DZ,1699711468
561,marsh harbour,26.5412,-77.0636,26.29000000000002,75,1,5.98,BS,1699711468
